First Name,Last Name,Sport,Year,Hometown,State,state_id,latitude,longitude,population
BRADY,ELLISON,Archery,2024,Billings,Montana,MT,45.7891,-108.5526,131519
CATALINA,GNORIEGA,Archery,2024,San Diego,California,CA,32.8313,-117.1222,3046560
CASEY,KAUFHOLD,Archery,2024,Lancaster,Pennsylvania,PA,40.042,-76.3012,402476
JENNIFER,MUCINO-FERNANDEZ,Archery,2024,Chula Vista,California,CA,32.6281,-117.0144,276103
ANITA,ALVAREZ,Artistic Swimming,2024,Buffalo,New York,NY,42.9018,-78.8487,944589
JAIME,CZARKOWSKI,Artistic Swimming,2024,Los Angeles,California,CA,34.1141,-118.4068,11922389
MEGUMI,FIELD,Artistic Swimming,2024,Cerritos,California,CA,33.8678,-118.0686,49016
KEANA,HUNTER,Artistic Swimming,2024,Issaquah,Washington,WA,47.5439,-122.0471,39400
AUDREY,KWON,Artistic Swimming,2024,Los Angeles,California,CA,34.1141,-118.4068,11922389
JACKLYN,LUU,Artistic Swimming,2024,Milpitas,California,CA,37.4336,-121.8921,79092
DANIELLA,RAMIREZ,Artistic Swimming,2024,Miramar,Florida,FL,25.9773,-80.3351,135158
RUBY,REMATI,Artistic Swimming,2024,Eugene,Oregon,OR,44.0564,-123.1174,270990
VINSON,CHIU,Badminton,2024,Newport Beach,California,CA,33.6151,-117.8668,85159
JENNIE,GAI,Badminton,2024,Fremont,California,CA,37.5265,-121.9843,228795
HOWARD,SHU,Badminton,2024,Orange County,California,,,,
ANNIE,XU,Badminton,2024,San Jose,California,CA,37.3012,-121.848,1771413
KERRY,XU,Badminton,2024,San Jose,California,CA,37.3012,-121.848,1771413
JOSHUA,YUAN,Badminton,2024,Foster City,California,CA,37.5553,-122.2659,33215
BEIWEN,ZHANG,Badminton,2024,Las Vegas,Nevada,NV,36.2333,-115.2654,2248047
CANYON,BARRY,Basketball(3x3),2024,Colorado Springs,Colorado,CO,38.8674,-104.7605,638194
CAMERON,BRINK,Basketball(3x3),2024,Beaverton,Oregon,OR,45.4779,-122.8168,97554
CIERRA,BURDICK,Basketball(3x3),2024,Charlotte,North Carolina,NC,35.2083,-80.8303,1427444
JIMMER,FREDETTE,Basketball(3x3),2024,Denver,Colorado,CO,39.762,-104.8758,2687458
DEARICA,HAMBY,Basketball(3x3),2024,Marietta,Georgia,GA,33.9533,-84.5422,61387
RHYNE,HOWARD,Basketball(3x3),2024,Chattanooga,Tennessee,TN,35.066,-85.2481,406849
REEM,MADDOX,Basketball(3x3),2024,Los Angeles,California,CA,34.1141,-118.4068,11922389
DYLAN,TRAVIS,Basketball(3x3),2024,Omaha,Nebraska,NE,41.2627,-96.0529,821345
HAILEY,VAN LITH,Basketball(3x3),2024,Wenatchee,Washington,WA,47.436,-120.3295,76152
BAM,ADEBAYO,Basketball,2024,High Point,North Carolina,NC,35.991,-79.9937,164836
DEVIN,BOOKER,Basketball,2024,Grand Rapids,Michigan,MI,42.9619,-85.6562,609023
NAPHEESA,COLLIER,Basketball,2024,Jefferson City,Missouri,MO,38.5676,-92.1759,42644
KAHLEAH,COPPER,Basketball,2024,Philadelphia,Pennsylvania,PA,40.0077,-75.1339,5683533
STEPHEN,CURRY,Basketball,2024,Charlotte,North Carolina,NC,35.2083,-80.8303,1427444
ANTHONY,DAVIS,Basketball,2024,Chicago,Illinois,IL,41.8375,-87.6866,8497759
KEVIN,DURANT,Basketball,2024,Prince George'S County,Maryland,,,,
ANTHONY,EDWARDS,Basketball,2024,Atlanta,Georgia,GA,33.7628,-84.422,5180179
JOEL,EMBIID,Basketball,2024,Villanova,Pennsylvania,PA,40.0405,-75.341,8081
CHELSEA,GRAY,Basketball,2024,Hayward,California,CA,37.6328,-122.0766,160602
BRITTNEY,GRINER,Basketball,2024,Houston,Texas,TX,29.786,-95.3885,5970127
TYRESE,HALIBURTON,Basketball,2024,Oshkosh,Wisconsin,WI,44.0227,-88.5619,74251
JRUE,HOLIDAY,Basketball,2024,Los Angeles,California,CA,34.1141,-118.4068,11922389
SABRINA,IONESCU,Basketball,2024,Walnut Creek,California,CA,37.9024,-122.0399,69809
LEBRON,JAMES,Basketball,2024,Akron,Ohio,OH,41.0798,-81.5219,541945
KAWHI,LEONARD,Basketball,2024,Los Angeles,California,CA,34.1141,-118.4068,11922389
JEWELL,LOYD,Basketball,2024,Lincolnwood,Illinois,IL,42.0054,-87.733,13268
KELSEY,PLUM,Basketball,2024,Poway,California,CA,32.9871,-117.0201,48737
BREANNA,STEWART,Basketball,2024,North Syracuse,New York,NY,43.1339,-76.1304,6669
JAYSON,TATUM,Basketball,2024,Boston,Massachusetts,MA,42.3188,-71.0852,4328315
DIANA,TAURASI,Basketball,2024,Glendale,California,CA,34.1819,-118.2468,194512
ALYSSA,THOMAS,Basketball,2024,Camp Hill,Pennsylvania,PA,40.2422,-76.9274,8133
DERRICK,WHITE,Basketball,2024,Parker,Colorado,CO,39.5084,-104.7753,58733
A'JA,WILSON,Basketball,2024,Columbia,South Carolina,SC,34.0378,-80.9036,604065
JACKIE,YOUNG,Basketball,2024,Princeton,Indiana,IN,38.3553,-87.5784,8344
ANDREW,BENESH,Beach Volleyball,2024,Rancho Palos Verdes,California,CA,33.7554,-118.3634,41805
CHASE,BUDINGER,Beach Volleyball,2024,Encinitas,California,CA,33.0492,-117.261,61942
KELLY,CHENG,Beach Volleyball,2024,Fullerton,California,CA,33.8841,-117.9279,142280
MILES,EVANS,Beach Volleyball,2024,Santa Barbara,California,CA,34.4285,-119.7202,199023
SARA,HUGHES,Beach Volleyball,2024,Costa Mesa,California,CA,33.6667,-117.9135,111490
TARYN,KLOTH,Beach Volleyball,2024,Sioux Falls,South Dakota,SD,43.5396,-96.7311,204484
KRISTEN,NUSS,Beach Volleyball,2024,New Orleans,Louisiana,LA,30.0687,-89.9288,932759
MILES,PARTAIN,Beach Volleyball,2024,Pacific Palisades,California,,,,
PERRIS,BENEGAS,BMX (Freestyle),2024,Reno,Nevada,NV,39.5497,-119.8483,457702
MARCUS,CHRISTOPHER,BMX (Freestyle),2024,Hartville,Ohio,OH,40.9618,-81.3348,3318
JUSTIN,DOWELL,BMX (Freestyle),2024,Virginia Beach,Virginia,VA,36.7335,-76.0435,1443020
HANNAH,ROBERTS,BMX (Freestyle),2024,Buchanan,Michigan,MI,41.8283,-86.3656,4276
KAMREN,LARSEN,BMX (Racing),2024,Bakersfield,California,CA,35.3529,-119.0359,571992
FELICIA,STANCIL,BMX (Racing),2024,Palm Harbor,Florida,FL,28.0847,-82.7481,61589
DALENY,VAUGHN,BMX (Racing),2024,Tucson,Arizona,AZ,32.1541,-110.8787,878320
ALISE,WILLOUGHBY,BMX (Racing),2024,Saint Cloud,Minnesota,,,,
CAMERON,WOOD,BMX (Racing),2024,Bozeman,Montana,MT,45.6833,-111.0558,65279
JOSHUA TIMOTHY,EDWARDS,Boxing,2024,Houston,Texas,TX,29.786,-95.3885,5970127
JAJAIRA,GONZALEZ,Boxing,2024,Glendora,California,CA,34.1449,-117.8467,52095
JAHMAL,HARVEY,Boxing,2024,Oxon Hill,Maryland,MD,38.7884,-76.9727,18526
ROSCOE,HILL,Boxing,2024,Detroit,Michigan,MI,42.3834,-83.1024,3725908
OMARI,JONES,Boxing,2024,Orlando,Florida,FL,28.4773,-81.337,1882705
JENNIFER,LOZANO,Boxing,2024,Laredo,Texas,TX,27.5625,-99.4874,255293
MORELLE,MCCANE,Boxing,2024,Cleveland,Ohio,OH,41.4764,-81.6805,1680247
ALYSSA,MENDOZA,Boxing,2024,Caldwell,Idaho,ID,43.6453,-116.6594,61212
JEFFREY,LOUIS,Breaking,2024,Houston,Texas,TX,29.786,-95.3885,5970127
LOGAN,EDRA,Breaking,2024,Chula Vista,California,CA,32.6281,-117.0144,276103
GRACE,CHOI,Breaking,2024,Louisville,Kentucky,KY,38.1663,-85.6485,963812
VICTOR,MONTALVO,Breaking,2024,Kissimmee,Florida,FL,28.3041,-81.4169,431618
JONAS,ECKER,Canoe/Kayak,2024,Bellingham,Washington,WA,48.7548,-122.469,129880
CASEY,EICHFELD,Canoe/Kayak,2024,Huntersville,North Carolina,NC,35.406,-80.8716,61202
NEVIN,HARRISON,Canoe/Kayak,2024,Seattle,Washington,WA,47.6211,-122.3244,3561397
EVY,LEIBFARTH,Canoe/Kayak,2024,Bryson City,North Carolina,NC,35.4262,-83.4475,1638
AARON,SMALL,Canoe/Kayak,2024,Seattle,Washington,WA,47.6211,-122.3244,3561397
OLIVIA,CUMMINS,Cycling,2024,Fort Collins,Colorado,CO,40.5477,-105.0656,335398
CHLOE,DYGERT,Cycling,2024,Brownsburg,Indiana,IN,39.8337,-86.383,29379
KRISTEN,FAULKNER,Cycling,2024,Homer,Alaska,AK,59.653,-151.5255,5623
MATTEO,JORGENSON,Cycling,2024,Boise,Idaho,ID,43.6005,-116.2308,449776
GRANT,KOONTZ,Cycling,2024,Houston,Texas,TX,29.786,-95.3885,5970127
BRANDON,MCNULTY,Cycling,2024,Phoenix,Arizona,AZ,33.5722,-112.0892,4064275
MAGNUS,SHEFFIELD,Cycling,2024,Pittsford,New York,,,,
JENNIFER,VALENTE,Cycling,2024,San Diego,California,CA,32.8313,-117.1222,3046560
LILY,WILLIAMS,Cycling,2024,Tallahassee,Florida,FL,30.4551,-84.2527,258696
TAYLOR,KNIBB,"Cycling
Triathlon",2024,Boulder,Colorado,CO,40.0248,-105.2524,118090
RILEY,AMOS,Cycling (Mountain Bike),2024,Durango,Colorado,CO,37.2659,-107.8781,19148
HALEY,BATTEN,Cycling (Mountain Bike),2024,Park City,Utah,UT,40.6502,-111.5013,8379
CHRISTOPHER,BLEVINS,Cycling (Mountain Bike),2024,Durango,Colorado,CO,37.2659,-107.8781,19148
SAVILIA,BLUNK,Cycling (Mountain Bike),2024,Inverness,California,CA,38.0821,-122.8471,1469
SARAH,BACON,Diving,2024,Indianapolis,Indiana,IN,39.7771,-86.1458,1729849
ANDREW,CAPOBIANCO,Diving,2024,Wantagh,New York,NY,40.6686,-73.5104,17995
KASSIDY,COOK,Diving,2024,The Woodlands,Texas,TX,30.1738,-95.5134,118402
TYLER,DOWNS,Diving,2024,Ballwin,Missouri,MO,38.595,-90.55,30948
GREG,DUNCAN,Diving,2024,Oakton,Virginia,VA,38.8887,-77.3016,36529
ALISON,GIBSON,Diving,2024,Austin,Texas,TX,30.3005,-97.7522,1905945
BRANDON,LOSCHIAVO,Diving,2024,Huntington Beach,California,CA,33.696,-118.0018,197481
JESSICA,PARRATTO,Diving,2024,Dover,New Hampshire,NH,43.1887,-70.8845,74554
DELANEY,SCHNELL,Diving,2024,Tucson,Arizona,AZ,32.1541,-110.8787,878320
CARSON,TYLER,Diving,2024,Moultrie,Georgia,GA,31.1591,-83.7708,14533
DARYN,WRIGHT,Diving,2024,Plainfield,Indiana,IN,39.6954,-86.3716,35078
WILLIAM,COLEMAN III,Equestrian,2024,Gordonsville,Virginia,VA,38.136,-78.1879,1946
KARL,COOK,Equestrian,2024,Rancho Santa Fe,California,CA,33.024,-117.1992,3033
KENT,FARRINGTON,Equestrian,2024,Wellington,Florida,FL,26.6461,-80.2699,61373
ELISABETH,HALLIDAY,Equestrian,2024,Ocala,Florida,FL,29.178,-82.1511,186840
LAURA,KRAUT,Equestrian,2024,Wellington,Florida,FL,26.6461,-80.2699,61373
ADRIENNE,LYLE,Equestrian,2024,Greenwood Village,Colorado,CO,39.6153,-104.9131,15537
BOYD,MARTIN,Equestrian,2024,Cochranville,Pennsylvania,PA,39.8905,-75.9241,488
MARCUS,ORLOB,Equestrian,2024,Loxahatchee,Florida,,,,
CAROLINE,PAMUKCU,Equestrian,2024,Rieglesville,Pennsylvania,,,,
STEFFEN,PETERS,Equestrian,2024,San Diego,California,CA,32.8313,-117.1222,3046560
MCLAIN,WARD,Equestrian,2024,Brewster,New York,NY,41.397,-73.6151,2506
ANNE,CEBULA,Fencing,2024,Brooklyn,New York,NY,40.6501,-73.9496,2736074
MAIA,CHAMBERLAIN,Fencing,2024,Menlo Park,California,CA,37.4685,-122.1673,33324
MILES,CHAMLEY-WATSON,Fencing,2024,New York,New York,NY,40.6943,-73.9249,18908608
ELI,DERSHWITZ,Fencing,2024,Sherborn,Massachusetts,,,,
FILIP,DOLEGIEWICZ,Fencing,2024,Park Ridge,Illinois,IL,42.0125,-87.8436,39368
JACQUELINE,DUBROVICH,Fencing,2024,Riverdale,New Jersey,NJ,40.9921,-74.3125,4081
MARGHERITA,GUZZI VINCENTI,Fencing,2024,Hartland,Wisconsin,WI,43.1029,-88.3396,9599
COLIN,HEATHCOCK,Fencing,2024,"Beijing, China/Palo Alto, Ca",California,,,,
KATHARINE,HOLMES,Fencing,2024,Washington,D.C.,,,,
HADLEY,HUSISIAN,Fencing,2024,Oakton,Virginia,VA,38.8887,-77.3016,36529
NICK,ITKIN,Fencing,2024,Los Angeles,California,CA,34.1141,-118.4068,11922389
LEE,KIEFER,Fencing,2024,Lexington,Kentucky,KY,38.0423,-84.4587,321276
ALEXANDER,MASSIALAS,Fencing,2024,San Francisco,California,CA,37.7558,-122.4449,3364979
GEREK,MEINHARDT,Fencing,2024,Lexington,Kentucky,KY,38.0423,-84.4587,321276
TATIANA,NAZLYMOV,Fencing,2024,Bethesda,Maryland,MD,38.9866,-77.1188,66316
MITCHELL,SARON,Fencing,2024,Ridgewood,New Jersey,NJ,40.9821,-74.1127,26043
LAUREN,SCRUGGS,Fencing,2024,"Ozone Park, Queens",New York,,,,
MAGDA,SKARBONKIEWICZ,Fencing,2024,Portland,Oregon,OR,45.5371,-122.65,2095808
ELIZABETH,TARTAKOVSKY,Fencing,2024,Livingston,New Jersey,,,,
MAIA,WEINTRAUB,Fencing,2024,Philadelphia,Pennsylvania,PA,40.0077,-75.1339,5683533
KELSEY,BING,Field Hockey,2024,Houston,Texas,TX,29.786,-95.3885,5970127
LEAH,CROUSE,Field Hockey,2024,Virginia Beach,Virginia,VA,36.7335,-76.0435,1443020
BROOKE,DEBERDINE,Field Hockey,2024,Lancaster,Pennsylvania,PA,40.042,-76.3012,402476
EMMA,DEBERDINE,Field Hockey,2024,Millersville,Pennsylvania,PA,40.0047,-76.3522,8426
SOPHIA,GLADIEUX,Field Hockey,2024,Oley Valley,Pennsylvania,,,,
AMANDA,GOLINI,Field Hockey,2024,Randolph,New Jersey,,,,
ALEXANDRA,HAMMEL,Field Hockey,2024,Duxbury,Massachusetts,,,,
ASHLEY,HOFFMAN,Field Hockey,2024,Mohnton,Pennsylvania,PA,40.2872,-75.987,2923
KARLIE,KISHA,Field Hockey,2024,Hamburg,Pennsylvania,PA,40.5561,-75.9825,4342
KELEE,LEPAGE,Field Hockey,2024,Honey Brook,Pennsylvania,,,,
MEGAN,ROGERS,Field Hockey,2024,San Diego,California,CA,32.8313,-117.1222,3046560
ASHLEY,SESSA,Field Hockey,2024,Limerick,Pennsylvania,,,,
MEREDITH,SHOLDER,Field Hockey,2024,Fleetwood,Pennsylvania,PA,40.4565,-75.8209,4046
ABIGAIL,TAMER,Field Hockey,2024,Dexter,Michigan,MI,42.3319,-83.8803,4505
ELIZABETH,YEAGER,Field Hockey,2024,Greenwich,Connecticut,,,,
MADELEINE,ZIMMER,Field Hockey,2024,Hershey,Pennsylvania,PA,40.2806,-76.6458,14682
WYNDHAM,CLARK,Golf,2024,Denver,Colorado,CO,39.762,-104.8758,2687458
NELLY,KORDA,Golf,2024,Bradenton,Florida,FL,27.4901,-82.5757,55795
COLLIN,MORIKAWA,Golf,2024,La Canada,California,,,,
XANDER,SCHAUFFELE,Golf,2024,San Diego,California,CA,32.8313,-117.1222,3046560
SCOTTIE,SCHEFFLER,Golf,2024,Dallas,Texas,TX,32.7935,-96.7667,5830932
LILIA,VU,Golf,2024,Fountain Valley,California,CA,33.7105,-117.9514,56754
ROSE,ZHANG,Golf,2024,Irvine,California,CA,33.6772,-117.7738,304527
SIMONE,BILES,Gymnastics,2024,Spring,Texas,TX,30.0613,-95.383,63930
JADE,CAREY,Gymnastics,2024,Phoenix,Arizona,AZ,33.5722,-112.0892,4064275
JORDAN,CHILES,Gymnastics,2024,Conroe,Texas,TX,30.3238,-95.4824,92475
EVITA,GRISKENAS,Gymnastics,2024,Orland Park,Illinois,IL,41.6075,-87.8619,58345
ASHER,HONG,Gymnastics,2024,Tomball,Texas,TX,30.0951,-95.6194,12630
PAUL,JUDA,Gymnastics,2024,Deerfield,Illinois,IL,42.1654,-87.8516,19173
SUNISA,LEE,Gymnastics,2024,Saint Paul,Minnesota,,,,
BRODY,MALONE,Gymnastics,2024,Rockmart,Georgia,GA,34.0103,-85.044,5113
STEPHEN,NEDOROSCIK,Gymnastics,2024,Worcester,Massachusetts,MA,42.2705,-71.8079,486486
FREDERICK,RICHARD,Gymnastics,2024,Stoughton,Massachusetts,,,,
HEZLY,RIVERA,Gymnastics,2024,Oradell,New Jersey,NJ,40.9562,-74.0314,8208
ALIAKSEI,SHOSTAK,Gymnastics,2024,Lafayette,Louisiana,LA,30.2082,-92.0325,237565
JESSICA,STEVENS,Gymnastics,2024,Ellicott City,Maryland,MD,39.2774,-76.8345,73589
ANGELICA,DELGADO,Judo,2024,Miami,Florida,FL,25.784,-80.2101,6080145
JOHN,JAYNE,Judo,2024,Chicago,Illinois,IL,41.8375,-87.6866,8497759
MARIA CELIA,LABORDE,Judo,2024,Kenosha,Wisconsin,WI,42.5865,-87.8773,124297
JACK,YONEZUKA,Judo,2024,West Long Branch,New Jersey,NJ,40.2883,-74.0185,8547
JESSICA,DAVIS,Modern Pentathlon,2024,Bethlehem,Connecticut,,,,
WILLIAM,BENDER,Rowing,2024,Norwich,Vermont,,,,
JUSTIN,BEST,Rowing,2024,Kennett Square,Pennsylvania,PA,39.8438,-75.7113,5982
MOLLY,BRUGGEMAN,Rowing,2024,Dayton,Ohio,OH,39.7805,-84.2003,668825
OLIVER,BUB,Rowing,2024,Westport,Connecticut,,,,
CHARLOTTE,BUCK,Rowing,2024,Nyack,New York,NY,41.0919,-73.9143,7057
CHRIS,CARLSON,Rowing,2024,Bedford,New Hampshire,,,,
NINA,CASTAGNA,Rowing,2024,Cincinnati,Ohio,OH,39.1413,-84.506,1692702
PETER,CHATAIN,Rowing,2024,Winnetka,Illinois,IL,42.1064,-87.7421,12607
OLIVIA,COFFEY,Rowing,2024,Watkins Glen,New York,NY,42.3801,-76.8673,1777
TEAL,COHEN,Rowing,2024,Dallas,Texas,TX,32.7935,-96.7667,5830932
CLAIRE,COLLINS,Rowing,2024,Mclean,Virginia,VA,38.9436,-77.1943,49587
LIAM,CORRIGAN,Rowing,2024,Old Lyme,Connecticut,,,,
AZJA,CZAJKOWSKI,Rowing,2024,Imperial Beach,California,CA,32.5693,-117.118,26157
BEN,DAVISON,Rowing,2024,Inverness,Florida,FL,28.8416,-82.3418,7602
CLARK,DEAN,Rowing,2024,Sarasota,Florida,FL,27.3387,-82.5432,55508
EMILY,DELLEMAN,Rowing,2024,Davenport,Iowa,IA,41.5565,-90.6053,281333
MICHAEL,GRADY,Rowing,2024,Pittsburgh,Pennsylvania,PA,40.4397,-79.9763,1749091
MARGARET,HEDEMAN,Rowing,2024,Concord,Massachusetts,,,,
HENRY,HOLLINGSWORTH,Rowing,2024,Dover,Massachusetts,,,,
GRACE,JOYCE,Rowing,2024,Northfield,Illinois,IL,42.1025,-87.7791,5707
EMILY,KALLFELZ,Rowing,2024,Jamestown,Rhode Island,,,,
KATE,KNIFTON,Rowing,2024,Austin,Texas,TX,30.3005,-97.7522,1905945
KARA,KOHLER,Rowing,2024,Clayton,California,CA,37.9404,-121.9301,11070
SORIN,KOSZYK,Rowing,2024,Grosse Pointe Park,Michigan,MI,42.3794,-82.9287,11513
DAISY,MAZZIO-MANSON,Rowing,2024,Wellesley,Massachusetts,,,,
NICK,MEAD,Rowing,2024,Strafford,Pennsylvania,,,,
RIELLY,MILNE,Rowing,2024,Woodinville,Washington,WA,47.757,-122.1477,13301
MEGHAN,MUSNICKI,Rowing,2024,Naples,New York,,,,
LAUREN,O'CONNOR,Rowing,2024,Belleville,Wisconsin,WI,42.8643,-89.5402,2712
EVAN,OLSON,Rowing,2024,Bothell,Washington,WA,47.7735,-122.2044,47917
JACOB,PLIHAL,Rowing,2024,Vashon Island,Washington,,,,
PIETER,QUINTON,Rowing,2024,Portland,Oregon,OR,45.5371,-122.65,2095808
MOLLY,RECKFORD,Rowing,2024,Short Hills,New Jersey,NJ,40.7389,-74.3278,14448
KELSEY,REELICK,Rowing,2024,Brookfield,Connecticut,,,,
NICK,RUSHER,Rowing,2024,West Bend,Wisconsin,WI,43.4173,-88.1818,31682
REGINA,SALMONS,Rowing,2024,Methuen,Massachusetts,,,,
MICHELLE,SECHSER,Rowing,2024,San Luis Obispo,California,CA,35.2669,-120.669,47529
CHRISTIAN,TABASH,Rowing,2024,Alexandria,Virginia,VA,38.8185,-77.0861,157594
JESS,THOENNES,Rowing,2024,Highlands Ranch,Colorado,CO,39.5419,-104.9708,101514
SOPHIA,VITAS,Rowing,2024,Franklin,Wisconsin,WI,42.8854,-88.0104,36513
KRISTI,WAGNER,Rowing,2024,Weston,Massachusetts,,,,
MADDIE,WANAMAKER,Rowing,2024,Neenah,Wisconsin,WI,44.1669,-88.4767,27309
PERRY,BAKER,Rugby,2024,New Smyrna Beach,Florida,FL,29.0249,-80.9652,30449
ORRIN,BIZER,Rugby,2024,Houston,Texas,TX,29.786,-95.3885,5970127
KAYLA,CANETT,Rugby,2024,San Diego,California,CA,32.8313,-117.1222,3046560
ADAM,CHANNEL,Rugby,2024,Long Beach,California,CA,33.7977,-118.167,462293
AARON,CUMMINGS,Rugby,2024,Muskegon,Michigan,MI,43.2281,-86.2562,166847
LAUREN,DOYLE,Rugby,2024,Boody,Illinois,IL,39.7644,-89.0467,411
MALACCHI,ESDALE,Rugby,2024,Newark,Delaware,DE,39.6776,-75.7576,30655
NAIMA,FUALA'AU,Rugby,2024,Hayward,California,CA,37.6328,-122.0766,160602
MADISON,HUGHES,Rugby,2024,Lancaster,Massachusetts,,,,
ALEV,KELTER,Rugby,2024,Eagle River,Alaska,,,,
KRISTI,KIRSHE,Rugby,2024,Franklin,Massachusetts,,,,
LUCAS,LACAMP,Rugby,2024,San Diego,California,CA,32.8313,-117.1222,3046560
MATAI,LEUTA,Rugby,2024,Monterey,California,CA,36.5919,-121.8808,30007
SARAH,LEVY,Rugby,2024,San Diego,California,CA,32.8313,-117.1222,3046560
ILONA,MAHER,Rugby,2024,Burlington,Vermont,VT,44.4876,-73.2316,123307
ALENA,OLSEN,Rugby,2024,Caledonia,Michigan,MI,42.7945,-85.5153,1808
ARIANA,RAMSEY,Rugby,2024,Philadelphia,Pennsylvania,PA,40.0077,-75.1339,5683533
STEPH,ROVETTI,Rugby,2024,Reno,Nevada,NV,39.5497,-119.8483,457702
ALEX,SEDRICK,Rugby,2024,Herriman,Utah,UT,40.4899,-112.017,55301
SAMMY,SULLIVAN,Rugby,2024,Fayetteville,North Carolina,NC,35.085,-78.9772,328804
NAYA,TAPPER,Rugby,2024,Charlotte,North Carolina,NC,35.2083,-80.8303,1427444
STEVE,TOMASIN,Rugby,2024,Santa Rosa,California,CA,38.4458,-122.7067,296180
MARCUS,TUPUOLA,Rugby,2024,Carson,California,CA,33.8374,-118.2559,94475
MAKA,UNUFE,Rugby,2024,Provo,Utah,UT,40.2457,-111.6457,619218
PITA,VI,Rugby,2024,Sacramento,California,CA,38.5677,-121.4685,1957738
KEVON,WILLIAMS,Rugby,2024,Houston,Texas,TX,29.786,-95.3885,5970127
IAN,BARROWS,Sailing,2024,St. Thomas,US Virgin Islands,,,,
LARA,DALLMAN-WEISS,Sailing,2024,Shoreview,Minnesota,MN,45.0842,-93.1358,26846
MARKUS,EDEGRAN,Sailing,2024,Ossining,New York,,,,
HANS,HENKEN,Sailing,2024,San Clemente,California,CA,33.4499,-117.6102,64232
DAVID,LIEBENBERG,Sailing,2024,Richmond,California,CA,37.9477,-122.3389,115619
NOAH,LYONS,Sailing,2024,Clearwater,Florida,FL,27.979,-82.7623,116984
STUART,MCNAY,Sailing,2024,Barrington,Rhode Island,,,,
DANIELA,MOROZ,Sailing,2024,Lafayette,California,CA,37.8919,-122.1189,25310
SARAH,NEWBERRY MOORE,Sailing,2024,Miami,Florida,FL,25.784,-80.2101,6080145
ERIKA,REINEKE,Sailing,2024,Fort Lauderdale,Florida,FL,26.1412,-80.1464,182673
STEPHANIE,ROBLE,Sailing,2024,East Troy,Wisconsin,WI,42.7846,-88.3973,4669
MAGGIE,SHEA,Sailing,2024,Wilmette,Illinois,IL,42.0771,-87.7282,27801
DOMINIQUE,STATER,Sailing,2024,Miami,Florida,FL,25.784,-80.2101,6080145
KATELYN MORGAN,ABELN,Shooting,2024,Douglasville,Georgia,GA,33.7384,-84.7054,35252
VINCENT,HANCOCK,Shooting,2024,Argyle,Texas,TX,33.1102,-97.1867,4638
WILLIAM,HINTON,Shooting,2024,Dacula,Georgia,GA,33.9815,-83.8952,6906
RYLAN WILLIAM,KISSELL,Shooting,2024,Littleton,Colorado,CO,39.5915,-105.0188,45531
ADA CLAUDIA,KORKHIN,Shooting,2024,Brookline,Massachusetts,,,,
ALEXIS,LAGAN,Shooting,2024,Boulder City,Nevada,NV,35.8407,-114.9257,14868
HENRY TURNER,LEVERETT,Shooting,2024,Bainbridge,Georgia,GA,30.9052,-84.5732,14234
SAGEN,MADDALENA,Shooting,2024,Groveland,California,CA,37.8325,-120.2392,591
DERRICK SCOTT,MEIN,Shooting,2024,Paola,Kansas,KS,38.5788,-94.8617,5742
RYANN PAIGE,PHILLIPS,Shooting,2024,Gail,Texas,TX,32.767,-101.4465,232
CONNER LYNN,PRINCE,Shooting,2024,Burleson,Texas,TX,32.517,-97.3344,48970
IVAN,ROE,Shooting,2024,Manhattan,Montana,MT,45.8622,-111.3344,1986
KEITH,SANDERSON,Shooting,2024,Monument,Colorado,CO,39.0736,-104.8467,10548
AUSTEN JEWELL,SMITH,Shooting,2024,Keller,Texas,TX,32.9335,-97.2256,45320
RACHEL LEIGHANNE,TOZIER,Shooting,2024,Pattonsburg,Missouri,MO,40.0715,-94.106,276
MARY CAROLYNN,TUCKER,Shooting,2024,Sarasota,Florida,FL,27.3387,-82.5432,55508
DANIA JO,VIZZI,Shooting,2024,Tampa,Florida,FL,27.9945,-82.4447,2861173
GAVIN,BOTTGER,Skateboarding,2024,Oceanside,California,CA,33.2247,-117.3083,173722
TATE,CAREW,Skateboarding,2024,San Diego,California,CA,32.8313,-117.1222,3046560
MARIAH,DURAN,Skateboarding,2024,Albuquerque,New Mexico,NM,35.1054,-106.6465,769986
JAGGER,EATON,Skateboarding,2024,Mesa,Arizona,AZ,33.4015,-111.7178,503390
PAIGE,HEYN,Skateboarding,2024,Tempe,Arizona,AZ,33.3881,-111.9319,181005
NYJAH,HUSTON,Skateboarding,2024,Laguna Beach,California,CA,33.5455,-117.7613,22943
CHRIS,JOSLIN,Skateboarding,2024,Hawaiian Gardens,California,CA,33.8304,-118.0728,14011
RUBY,LILLEY,Skateboarding,2024,Oceanside Ca,California,,,,
POE,PINSON,Skateboarding,2024,Fernandina Beach,Florida,FL,30.6571,-81.4511,13028
TOM,SCHAAR,Skateboarding,2024,Cardiff,California,,,,
MINNA,STESS,Skateboarding,2024,Petaluma,California,CA,38.2423,-122.6266,59682
BRYCE,WETTSTEIN,Skateboarding,2024,Encinitas,California,CA,33.0492,-117.261,61942
PAXTEN,AARONSON,Soccer,2024,Medford,New Jersey,,,,
KORBIN,ALBERT,Soccer,2024,Grayslake,Illinois,IL,42.3405,-88.0338,20801
JOSHUA,ATENCIO,Soccer,2024,Bellevue,Washington,WA,47.5951,-122.1535,150606
CROIX,BETHUNE,Soccer,2024,Alpharetta,Georgia,GA,34.0704,-84.2738,65884
TAYLOR,BOOTH,Soccer,2024,Eden,Utah,UT,41.3022,-111.8085,885
GIANLUCA,BUSIO,Soccer,2024,Greensboro,North Carolina,NC,36.0956,-79.8271,347130
SAMANTHA,COFFEY,Soccer,2024,Sleepy Hollow,New York,NY,41.0936,-73.8722,10396
BENJAMIN,CREMASCHI,Soccer,2024,Miami,Florida,FL,25.784,-80.2101,6080145
TIERNA,DAVIDSON,Soccer,2024,Menlo Park,California,CA,37.4685,-122.1673,33324
MAXIMILIAN,DIETZ,Soccer,2024,Frankfurt,Germany,,,,
CRYSTAL,DUNN,Soccer,2024,Rockville Centre,New York,NY,40.6643,-73.6383,25784
EMILY,FOX,Soccer,2024,Ashburn,Virginia,VA,39.0277,-77.4714,45479
NAOMI,GIRMA,Soccer,2024,San Jose,California,CA,37.3012,-121.848,1771413
NATHAN,HARRIEL,Soccer,2024,Oldsmar,Florida,FL,28.0506,-82.6698,14877
LINDSEY,HORAN,Soccer,2024,Golden,Colorado,CO,39.7406,-105.2118,20461
CASEY,KRUEGER,Soccer,2024,Naperville,Illinois,IL,41.748,-88.1659,149089
ROSE,LAVELLE,Soccer,2024,Cincinnati,Ohio,OH,39.1413,-84.506,1692702
CATARINA,MACARIO,Soccer,2024,San Diego,California,CA,32.8313,-117.1222,3046560
EMILY,MADRIL,Soccer,2024,Boise,Idaho,ID,43.6005,-116.2308,449776
JACK,MCGLYNN,Soccer,2024,Queens,New York,NY,40.7498,-73.7976,2405464
DUNCAN,MCGUIRE,Soccer,2024,Omaha,Nebraska,NE,41.2627,-96.0529,821345
DJORDJE,MIHAILOVIC,Soccer,2024,Lemony,Illinois,,,,
CASEY,MURPHY,Soccer,2024,Bridgewater,New Jersey,,,,
ALYSSA,NAEHER,Soccer,2024,Stratford,Connecticut,,,,
JENNA,NIGHSWONGER,Soccer,2024,Huntington Beach,California,CA,33.696,-118.0018,197481
KEVIN,PAREDES,Soccer,2024,South Riding,Virginia,VA,38.912,-77.5132,33358
MILES,ROBINSON,Soccer,2024,Arlington,Massachusetts,,,,
TRINITY,RODMAN,Soccer,2024,Newport Beach,California,CA,33.6151,-117.8668,85159
PATRICK,SCHULTE,Soccer,2024,St. Peters,Missouri,MO,38.7825,-90.6061,57692
JAEDYN,SHAW,Soccer,2024,Frisco,Texas,TX,33.156,-96.8216,202075
GABRIEL,SLONINA,Soccer,2024,Addison,Illinois,IL,41.9313,-88.0085,35685
SOPHIA,SMITH,Soccer,2024,Windsor,Colorado,CO,40.469,-104.9198,33905
EMILY,SONNETT,Soccer,2024,Marietta,Georgia,GA,33.9533,-84.5422,61387
MALLORY,SWANSON,Soccer,2024,Highlands Ranch,Colorado,CO,39.5419,-104.9708,101514
TANNER,TESSMANN,Soccer,2024,Birmingham,Alabama,AL,33.5279,-86.7971,782111
JOHN,TOLKIN,Soccer,2024,Chatham,New Jersey,,,,
CALEB,WILEY,Soccer,2024,Atlanta,Georgia,GA,33.7628,-84.422,5180179
LYNN,WILLIAMS,Soccer,2024,Fresno,California,CA,36.783,-119.7939,725276
GRIFFIN,YOW,Soccer,2024,Clifton,Virginia,VA,38.7802,-77.3866,358
WALKER,ZIMMERMAN,Soccer,2024,Atlanta,Georgia,GA,33.7628,-84.422,5180179
COLIN,DUFFY,Sport Climbing,2024,Broomfield,Colorado,CO,39.9542,-105.0526,73946
NATALIA,GROSSMAN,Sport Climbing,2024,Santa Cruz,California,CA,36.9789,-122.0346,167835
JESSE,GRUPPER,Sport Climbing,2024,Montclair,New Jersey,,,,
ZACH,HAMMER,Sport Climbing,2024,Ann Arbor,Michigan,MI,42.2759,-83.731,308983
EMMA,HUNT,Sport Climbing,2024,Woodstock,Georgia,GA,34.1026,-84.5091,35171
PIPER,KELLY,Sport Climbing,2024,Indianapolis,Indiana,IN,39.7771,-86.1458,1729849
BROOKE,RABOUTOU,Sport Climbing,2024,Boulder,Colorado,CO,40.0248,-105.2524,118090
SAM,WATSON,Sport Climbing,2024,Southlake,Texas,TX,32.9545,-97.1503,30779
GRIFFIN,COLAPINTO,Surfing,2024,San Clemente,California,CA,33.4499,-117.6102,64232
JOHN JOHN,FLORENCE,Surfing,2024,Haleiwa,Hawaii,HI,21.5965,-158.1003,4708
CAROLINE,MARKS,Surfing,2024,Ponce Inlet,Florida,FL,29.0927,-80.9472,3364
CARISSA,MOORE,Surfing,2024,Honolulu,Hawaii,HI,21.3294,-157.846,348547
CAITLIN,SIMMERS,Surfing,2024,Oceanside,California,CA,33.2247,-117.3083,173722
JACK,ALEXY,Swimming,2024,Mendham,New Jersey,,,,
HUNTER,ARMSTRONG,Swimming,2024,Dover,Ohio,OH,40.5304,-81.4806,13118
PHOEBE,BACON,Swimming,2024,Chevy Chase,Maryland,MD,38.9944,-77.0738,9789
KATHARINE,BERKOFF,Swimming,2024,Missoula,Montana,MT,46.8751,-114.0214,88780
SHAINE,CASAS,Swimming,2024,Mcallen,Texas,TX,26.2252,-98.2467,797341
ERIKA,CONNOLLY,Swimming,2024,Knoxville,Tennessee,TN,35.9692,-83.9496,615829
BROOKS,CURRY,Swimming,2024,Dunwoody,Georgia,GA,33.9418,-84.3122,51458
KATE,DOUGLASS,Swimming,2024,Pelham,New York,,,,
CAELEB,DRESSEL,Swimming,2024,Micanopy,Florida,FL,29.506,-82.2806,522
MATT,FALLON,Swimming,2024,Warren,New Jersey,,,,
NIC,FINK,Swimming,2024,Morristown,New Jersey,NJ,40.7967,-74.4772,20126
BOBBY,FINKE,Swimming,2024,Clearwater,Florida,FL,27.979,-82.7623,116984
CARSON,FOSTER,Swimming,2024,Montgomery,Ohio,OH,39.2496,-84.3458,10816
ERIN,GEMMELL,Swimming,2024,Potomac,Maryland,MD,39.0141,-77.1943,46499
KATIE,GRIMES,Swimming,2024,Las Vegas,Nevada,NV,36.2333,-115.2654,2248047
CHRIS,GUILIANO,Swimming,2024,Douglassville,Pennsylvania,PA,40.2577,-75.7251,431
THOMAS,HEILMAN,Swimming,2024,Crozet,Virginia,VA,38.0645,-78.6961,8894
RYAN,HELD,Swimming,2024,Springfield,Illinois,IL,39.7709,-89.654,159671
LUKE,HOBSON,Swimming,2024,"Reno, Nevada",Nevada,,,,
TORRI,HUSKE,Swimming,2024,Arlington,Virginia,VA,38.8786,-77.1011,235845
DAVID,JOHNSTON,Swimming,2024,Dallas,Texas,TX,32.7935,-96.7667,5830932
KEATON,JONES,Swimming,2024,Gilbert,Arizona,AZ,33.31,-111.7463,267267
CHASE,KALISZ,Swimming,2024,Baltimore,Maryland,MD,39.3051,-76.6144,2196524
DREW,KIBLER,Swimming,2024,Carmel,Indiana,IN,39.965,-86.146,99453
MATT,KING,Swimming,2024,Snohomish,Washington,WA,47.9276,-122.0969,10133
LILLY,KING,Swimming,2024,Evansville,Indiana,IN,37.9881,-87.5341,203661
KATIE,LEDECKY,Swimming,2024,Bethesda,Maryland,MD,38.9866,-77.1188,66316
PAIGE,MADDEN,Swimming,2024,Mobile,Alabama,AL,30.6782,-88.1162,320855
SIMONE,MANUEL,Swimming,2024,Sugar Land,Texas,TX,29.5935,-95.6358,110077
JOSH,MATHENY,Swimming,2024,Pittsburgh,Pennsylvania,PA,40.4397,-79.9763,1749091
RYAN,MURPHY,Swimming,2024,Jacksonville,Florida,FL,30.3322,-81.6749,1288298
ANNA,PEPLOWSKI,Swimming,2024,Germantown Hills,Illinois,IL,40.7711,-89.4669,3433
BLAKE,PIERONI,Swimming,2024,Valparaiso,Indiana,IN,41.4783,-87.0506,33991
IVAN,PUSKOVITCH,Swimming,2024,West Chester,Pennsylvania,PA,39.9601,-75.6058,19016
ALEX,SHACKELL,Swimming,2024,Carmel,Indiana,IN,39.965,-86.146,99453
AARON,SHACKELL,Swimming,2024,Carmel,Indiana,IN,39.965,-86.146,99453
REGAN,SMITH,Swimming,2024,Lakeville,Minnesota,MN,44.6774,-93.252,70696
KIERAN,SMITH,Swimming,2024,Ridgefield,Connecticut,,,,
CHARLIE,SWANSON,Swimming,2024,Richmond,Virginia,VA,37.5295,-77.4756,1073223
LUCA,URLANDO,Swimming,2024,Sacramento,California,CA,38.5677,-121.4685,1957738
GRETCHEN,WALSH,Swimming,2024,Nashville,Tennessee,TN,36.1715,-86.7842,1177657
ALEX,WALSH,Swimming,2024,Nashville,Tennessee,TN,36.1715,-86.7842,1177657
EMMA,WEBER,Swimming,2024,Denver,Colorado,CO,39.762,-104.8758,2687458
CLAIRE,WEINSTEIN,Swimming,2024,Las Vegas,Nevada,NV,36.2333,-115.2654,2248047
ABBEY,WEITZEIL,Swimming,2024,Santa Clarita Ca,California,,,,
EMMA,WEYANT,Swimming,2024,Sarasota,Florida,FL,27.3387,-82.5432,55508
LUKE,WHITLOCK,Swimming,2024,Noblesville,Indiana,IN,40.0355,-86.0042,70442
MARIAH,DENIGAN,Swimming,2024,Union,Kentucky,KY,38.9469,-84.6729,7369
KANAK,JHA,Table Tennis,2024,Milpitas,California,CA,37.4336,-121.8921,79092
RACHEL,SUNG,Table Tennis,2024,Campbell,California,CA,37.2802,-121.9539,43464
AMY,WANG,Table Tennis,2024,Sewell,New Jersey,NJ,39.7696,-75.1443,3132
LILY,ZHANG,Table Tennis,2024,Palo Alto,California,CA,37.3905,-122.1468,67901
FAITH,DILLON,Taekwondo,2024,Las Vegas,Nevada,NV,36.2333,-115.2654,2248047
JONATHAN,HEALY,Taekwondo,2024,Houston,Texas,TX,29.786,-95.3885,5970127
CJ,NICKOLAS,Taekwondo,2024,Brentwood,California,CA,37.9356,-121.719,64443
KRISTINA,TEACHOUT,Taekwondo,2024,Palm Bay,Florida,FL,27.9631,-80.6593,534348
DANIELLE,COLLINS,Tennis,2024,St. Petersburg,Florida,FL,27.7931,-82.6652,259343
CHRISTOPHER,EUBANKS,Tennis,2024,Atlanta,Georgia,GA,33.7628,-84.422,5180179
TAYLOR,FRITZ,Tennis,2024,Rancho Santa Fe,California,CA,33.024,-117.1992,3033
COCO,GAUFF,Tennis,2024,Delray Beach,Florida,FL,26.455,-80.0905,66646
MARCOS,GIRON,Tennis,2024,Thousand Oaks,California,CA,34.1914,-118.8756,209570
AUSTIN,KRAJICEK,Tennis,2024,Allen,Texas,TX,33.1088,-96.6735,105444
DESIRAE,KRAWCZYK,Tennis,2024,Palm Desert,California,CA,33.7378,-116.3695,51290
EMMA,NAVARRO,Tennis,2024,Charleston,South Carolina,SC,32.8168,-79.9687,706884
TOMMY,PAUL,Tennis,2024,Greenville,New Jersey,,,,
JESSICA,PEGULA,Tennis,2024,Buffalo,New York,NY,42.9018,-78.8487,944589
RAJEEV,RAM,Tennis,2024,Carmel,Indiana,IN,39.965,-86.146,99453
NIA,AKINS,Track and Field,2024,San Diego,California,CA,32.8313,-117.1222,3046560
CJ,ALLEN,Track and Field,2024,Allyn,Washington,WA,47.3863,-122.8386,2249
VALARIE,ALLMAN,Track and Field,2024,Longmont,Colorado,CO,40.1686,-105.1005,101642
CHRISTOPHER,BAILEY,Track and Field,2024,Atlanta,Georgia,GA,33.7628,-84.422,5180179
HEATH,BALDWIN,Track and Field,2024,Kalamazoo,Michigan,MI,42.2749,-85.5882,200838
TREVOR,BASSITT,Track and Field,2024,Bluffton,Ohio,OH,40.8912,-83.8887,3540
KENNETH,BEDNAREK,Track and Field,2024,Rice Lake,Wisconsin,WI,45.4864,-91.7447,8990
RAI,BENJAMIN,Track and Field,2024,Mount Vernon,New York,NY,40.9136,-73.8291,72817
GRAHAM,BLANKS,Track and Field,2024,Athens,Georgia,GA,33.9508,-83.3689,143173
TALIYAH,BROOKS,Track and Field,2024,Wichita Falls,Texas,TX,33.9072,-98.5291,102482
JOSEPH,BROWN,Track and Field,2024,Mansfield,Texas,TX,32.569,-97.1213,73680
BRITTANY,BROWN,Track and Field,2024,Pomona/ Claremont,California,,,,
KAYLYN,BROWN,Track and Field,2024,Charlotte,North Carolina,NC,35.2083,-80.8303,1427444
AALIYAH NICKOLE,BUTLER,Track and Field,2024,Fort Lauderdale,Florida,FL,26.1412,-80.1464,182673
MALCOLM,CLEMONS,Track and Field,2024,Oakland,California,CA,37.7904,-122.2166,437825
ANNA,COCKRELL,Track and Field,2024,Charlotte,North Carolina,NC,35.2083,-80.8303,1427444
CHRISTIAN,COLEMAN,Track and Field,2024,Atlanta,Georgia,GA,33.7628,-84.422,5180179
VALERIE,CONSTIEN,Track and Field,2024,Edwards,Colorado,CO,39.6215,-106.6184,10721
JAMES ANDRES,CORRIGAN,Track and Field,2024,Los Angeles,California,CA,34.1141,-118.4068,11922389
ELISE,CRANNY,Track and Field,2024,Boulder,Colorado,CO,40.0248,-105.2524,118090
FREDDIE,CRITTENDEN,Track and Field,2024,St. Louis,Missouri,MO,38.6359,-90.2451,2130881
RYAN,CROUSER,Track and Field,2024,Boring,Oregon,OR,45.4304,-122.3716,1987
VASHTI,CUNNINGHAM,Track and Field,2024,Las Vegas,Nevada,NV,36.2333,-115.2654,2248047
TAMARI,DAVIS,Track and Field,2024,Gainesville,Florida,FL,29.6804,-82.3459,220929
JEREMIAH JASHON,DAVIS,Track and Field,2024,Fort Myers,Florida,FL,26.6194,-81.8302,88699
TARA,DAVIS-WOODHALL,Track and Field,2024,Fayetteville,Arkansas,AR,36.0714,-94.1661,394650
BRYCE,DEADMON,Track and Field,2024,Houston,Texas,TX,29.786,-95.3885,5970127
ANNETTE NNEKA,ECHIKUNWOKE,Track and Field,2024,Columbus,Ohio,OH,39.9862,-82.9855,1572546
KENDALL,ELLIS,Track and Field,2024,Pembroke Pines,Florida,FL,26.0128,-80.3382,170472
ANDREW,EVANS,Track and Field,2024,Portage,Michigan,MI,42.2,-85.5906,48936
GRANT,FISHER,Track and Field,2024,Grand Blanc,Michigan,MI,42.9258,-83.6181,8034
VERONICA,FRALEY,Track and Field,2024,Raleigh,North Carolina,NC,35.8324,-78.6429,1163152
TORI,FRANKLIN,Track and Field,2024,Chicago,Illinois,IL,41.8375,-87.6866,8497759
RACHEL,GLENN,Track and Field,2024,Long Beach,California,CA,33.7977,-118.167,462293
ANNA,HALL,Track and Field,2024,Greenwood Village,Colorado,CO,39.6153,-104.9131,15537
QUINCY,HALL,Track and Field,2024,Kansas City,Missouri,MO,39.1238,-94.5541,1689556
JUVAUGHN,HARRISON,Track and Field,2024,Huntsville,Alabama,AL,34.6981,-86.6412,349482
DANIEL,HAUGH,Track and Field,2024,Marietta,Georgia,GA,33.9533,-84.5422,61387
CHARI,HAWKINS,Track and Field,2024,Rexburg,Idaho,ID,43.8226,-111.7919,38803
QUANERA,HAYES,Track and Field,2024,Hope Mills,North Carolina,NC,34.971,-78.9597,17671
NIKKI,HILTZ,Track and Field,2024,Santa Cruz,California,CA,36.9789,-122.0346,167835
ALEIA,HOBBS,Track and Field,2024,New Orleans,Louisiana,LA,30.0687,-89.9288,932759
COLE,HOCKER,Track and Field,2024,Indianapolis,Indiana,IN,39.7771,-86.1458,1729849
GRANT,HOLLOWAY,Track and Field,2024,Chesapeake,Virginia,VA,36.6778,-76.3023,249377
ALEXIS,HOLMES,Track and Field,2024,Hamden,Connecticut,,,,
BRYCE,HOPPEL,Track and Field,2024,Midland,Texas,TX,32.0243,-102.1147,140171
MARISA,HOWARD,Track and Field,2024,Pasco,Washington,WA,46.2506,-119.1305,77274
CHASE,JACKSON,Track and Field,2024,Los Alamos,New Mexico,NM,35.8927,-106.2862,13460
MELISSA,JEFFERSON,Track and Field,2024,Georgetown,South Carolina,SC,33.3594,-79.2958,8465
ALAYSHA,JOHNSON,Track and Field,2024,Spring,Texas,TX,30.0613,-95.383,63930
JASMINE MARI,JONES,Track and Field,2024,Greensburg,Pennsylvania,PA,40.3113,-79.5445,14876
WEINI,KELATI-FREZGHI,Track and Field,2024,Flagstaff,Arizona,AZ,35.1872,-111.6194,80167
SAM,KENDRICKS,Track and Field,2024,Oxford,Mississippi,MS,34.3627,-89.5336,25713
FRED,KERLEY,Track and Field,2024,San Antonio,Texas,TX,29.4632,-98.5238,2058444
HOBBS,KESSLER,Track and Field,2024,Ann Arbor,Michigan,MI,42.2759,-83.731,308983
WILLIAM,KINCAID,Track and Field,2024,Littleton,Colorado,CO,39.5915,-105.0188,45531
KYREE,KING,Track and Field,2024,Ontario,California,CA,34.0393,-117.6064,176326
BRYNN TAYLOR,KING,Track and Field,2024,Houston,Texas,TX,29.786,-95.3885,5970127
ERRIYON,KNIGHTON,Track and Field,2024,Tampa,Florida,FL,27.9945,-82.4447,2861173
LEONARD,KORIR,Track and Field,2024,Colorado Springs,Colorado,CO,38.8674,-104.7605,638194
JOE,KOVACS,Track and Field,2024,Dublin,Ohio,OH,40.1112,-83.1454,48893
JARRION,LAWSON,Track and Field,2024,Texarkana,Texas,TX,33.45,-94.0847,79570
COURTNEY,LINDSEY,Track and Field,2024,Rock Island,Illinois,IL,41.4699,-90.5827,37264
DAKOTAH,LINDWURM,Track and Field,2024,St. Francis,Minnesota,MN,45.3991,-93.3901,8198
SHAMIER,LITTLE,Track and Field,2024,Chicago,Illinois,IL,41.8375,-87.6866,8497759
MCKENZIE,LONG,Track and Field,2024,Ironton,Ohio,OH,38.5323,-82.6779,10597
NOAH,LYLES,Track and Field,2024,Alexandria,Virginia,VA,38.8185,-77.0861,157594
EMILY,MACKAY,Track and Field,2024,Endicott,New York,NY,42.098,-76.0639,13540
MAGGIE,MALONE-HARDIN,Track and Field,2024,Geneva,Nebraska,NE,40.5308,-97.5974,2097
SALIF,MANE,Track and Field,2024,Bronx,New York,NY,40.8501,-73.8662,1472654
CONNER,MANTZ,Track and Field,2024,Smithfield,Utah,UT,41.8349,-111.8265,13658
SAM,MATTIS,Track and Field,2024,East Brunswick,New Jersey,,,,
SHELBY,MCEWEN,Track and Field,2024,Abbeville,Mississippi,MS,34.5034,-89.5025,395
SYDNEY,MCLAUGHLIN-LEVRONE,Track and Field,2024,Dunellen,New Jersey,NJ,40.5903,-74.4656,7598
BRANDON,MILLER,Track and Field,2024,Oâ€™Fallon,Missouri,,,,
KATIE,MOON,Track and Field,2024,Olmsted Twp,Ohio,,,,
JASMINE,MOORE,Track and Field,2024,Grand Prairie,Texas,TX,32.6871,-97.0208,197279
WHITTNI,MORGAN,Track and Field,2024,Panguitch,Utah,UT,37.8236,-112.4342,1702
MONAE',NICHOLS,Track and Field,2024,Winter Haven,Florida,FL,28.0118,-81.7014,293093
CHRISTOPHER,NILSEN,Track and Field,2024,Kansas City,Missouri,MO,39.1238,-94.5541,1689556
MICHAEL,NORMAN,Track and Field,2024,Murrieta,California,CA,33.5719,-117.1909,111899
VERNON,NORWOOD,Track and Field,2024,New Orleans,Louisiana,LA,30.0687,-89.9288,932759
YARED,NUGUSE,Track and Field,2024,Louisville,Kentucky,KY,38.1663,-85.6485,963812
ABDIHAMID,NUR,Track and Field,2024,Phoenix,Arizona,AZ,33.5722,-112.0892,4064275
FIONA,O'KEEFFE,Track and Field,2024,Sacramento,California,CA,38.5677,-121.4685,1957738
KETURAH,ORJI,Track and Field,2024,Mount Olive,New Jersey,,,,
PAYTON,OTTERDAHL,Track and Field,2024,Rosemount,Minnesota,MN,44.7466,-93.0661,25993
DEANNA,PRICE,Track and Field,2024,Moscow Mills,Missouri,MO,38.94,-90.9254,3502
ERIN,REESE,Track and Field,2024,Mount Prospect,Illinois,IL,42.0641,-87.9375,56191
SHA'CARRI,RICHARDSON,Track and Field,2024,Dallas,Texas,TX,32.7935,-96.7667,5830932
DANIEL,ROBERTS,Track and Field,2024,Peachtree City,Georgia,GA,33.3942,-84.571,38414
RUSSELL,ROBINSON,Track and Field,2024,Orlando,Florida,FL,28.4773,-81.337,1882705
KENNETH,ROOKS,Track and Field,2024,Walla Walla,Washington,WA,46.0671,-118.3368,33842
JAIDA,ROSS,Track and Field,2024,Medford,Oregon,OR,42.3372,-122.854,168959
MASAI,RUSSELL,Track and Field,2024,Upper Marlboro,Maryland,MD,38.8153,-76.7514,759
RAVEN,SAUNDERS,Track and Field,2024,Charleston,South Carolina,SC,32.8168,-79.9687,706884
KARISSA,SCHWEIZER,Track and Field,2024,Urbandale,Iowa,IA,41.639,-93.7812,45591
DONALD,SCOTT,Track and Field,2024,Apopka,Florida,FL,28.7015,-81.5316,55056
EMILY,SISSON,Track and Field,2024,Providence,Rhode Island,RI,41.823,-71.4187,1290271
ELLE,ST. PIERRE,Track and Field,2024,Berkshire,Vermont,,,,
GRACE ELIZABETH,STARK,Track and Field,2024,White Lake,Michigan,,,,
TWANISHA,TERRY,Track and Field,2024,Miami,Florida,FL,25.784,-80.2101,6080145
GABBY,THOMAS,Track and Field,2024,Northampton,Massachusetts,MA,42.3266,-72.6745,28245
CURTIS,THOMPSON,Track and Field,2024,Florence,New Jersey,,,,
VERNON,TURNER,Track and Field,2024,Yukon,Oklahoma,OK,35.5201,-97.7639,24198
JAYDEN,ULRICH,Track and Field,2024,East Alton,Illinois,IL,38.884,-90.1074,5782
PARKER ALYS,VALBY,Track and Field,2024,Tampa,Florida,FL,27.9945,-82.4447,2861173
COURTNEY,WAYMENT,Track and Field,2024,Layton,Utah,UT,41.077,-111.962,81726
JULIETTE,WHITTAKER,Track and Field,2024,Laurel,Maryland,MD,39.0949,-76.8622,29581
ISABELLA MARIE,WHITTAKER,Track and Field,2024,Laurel,Maryland,MD,39.0949,-76.8622,29581
MATTHEW,WILKINSON,Track and Field,2024,Excelsior,Minnesota,MN,44.9025,-93.5663,2257
HARRISON,WILLIAMS,Track and Field,2024,Memphis,Tennessee,TN,35.1087,-89.9663,1037998
BRIDGET,WILLIAMS,Track and Field,2024,Greensburg,Pennsylvania,PA,40.3113,-79.5445,14876
ALLIE,WILSON,Track and Field,2024,Wallingford,Pennsylvania,,,,
QUINCY ALEXANDER,WILSON,Track and Field,2024,Bowie,Maryland,MD,38.9549,-76.7406,57922
RUDY,WINKLER,Track and Field,2024,Sand Lake,New York,,,,
JACOB,WOOTEN,Track and Field,2024,Tomball,Texas,TX,30.0951,-95.6194,12630
CLAYTON,YOUNG,Track and Field,2024,Springville,Utah,UT,40.1638,-111.6205,35195
NICOLAS MACPHERSON,YOUNG,Track and Field,2024,Camarillo,California,CA,34.223,-119.0321,76748
ZACHERY,ZIEMEK,Track and Field,2024,Itasca,Illinois,IL,41.9772,-88.0183,9627
KIRSTEN,KASPER,Triathlon,2024,North Andover,Massachusetts,,,,
MORGAN,PEARSON,Triathlon,2024,New Vernon,New Jersey,NJ,40.7343,-74.4877,869
SETH,RIDER,Triathlon,2024,Germantown,Tennessee,TN,35.0829,-89.7824,41094
TAYLOR,SPIVEY,Triathlon,2024,Redondo Beach,California,CA,33.8577,-118.3765,70620
MATTHEW,ANDERSON,Volleyball,2024,West Seneca,New York,,,,
TAYLOR,AVERILL,Volleyball,2024,San Jose,California,CA,37.3012,-121.848,1771413
LAUREN,CARLINI,Volleyball,2024,Aurora,Illinois,IL,41.7638,-88.2902,181405
MICAH,CHRISTENSON,Volleyball,2024,Honolulu,Hawaii,HI,21.3294,-157.846,348547
TOREY,DEFALCO,Volleyball,2024,Huntington Beach,California,CA,33.696,-118.0018,197481
ANDREA,DREWS,Volleyball,2024,Elkhart,Indiana,IN,41.6916,-85.9627,149423
MICHA,HANCOCK,Volleyball,2024,Edmond,Oklahoma,OK,35.6689,-97.416,94503
MAXWELL,HOLT,Volleyball,2024,Cincinnati,Ohio,OH,39.1413,-84.506,1692702
THOMAS,JAESCHKE,Volleyball,2024,Wheaton,Illinois,IL,41.8561,-88.1085,53673
JEFFREY,JENDRYK II,Volleyball,2024,Wheaton,Illinois,IL,41.8561,-88.1085,53673
JORDAN,LARSON,Volleyball,2024,Hooper,Nebraska,NE,41.6116,-96.5487,980
MICAH,MA'A,Volleyball,2024,Kaneohe,Hawaii,HI,21.4062,-157.7904,35493
GARRETT,MUAGUTUTIA,Volleyball,2024,Oceanside,California,CA,33.2247,-117.3083,173722
CHIAKA,OGBOGU,Volleyball,2024,Coppell,Texas,TX,32.9639,-96.9903,42513
KATHRYN,PLUMMER,Volleyball,2024,Aliso Viejo,California,CA,33.5792,-117.7289,51896
JORDYN,POULTER,Volleyball,2024,Aurora,Colorado,CO,39.7083,-104.7237,387349
DANA,RETTKE,Volleyball,2024,Riverside,Illinois,IL,41.831,-87.8169,9225
KELSEY,ROBINSON,Volleyball,2024,Santa Cruz,California,CA,36.9789,-122.0346,167835
AARON,RUSSELL,Volleyball,2024,Deland,Florida,FL,29.0225,-81.2875,38392
ERIK,SHOJI,Volleyball,2024,Honolulu,Hawaii,HI,21.3294,-157.846,348547
AVERY,SKINNER,Volleyball,2024,Katy,Texas,TX,29.7905,-95.8353,22826
DAVID,SMITH,Volleyball,2024,Saugus,California,,,,
JORDAN,THOMPSON,Volleyball,2024,Minneapolis,Minnesota,MN,44.9635,-93.2678,2892569
HALEIGH,WASHINGTON,Volleyball,2024,Colorado Springs,Colorado,CO,38.8674,-104.7605,638194
JUSTINE,WONG-ORANTES,Volleyball,2024,Cypress,California,CA,33.8171,-118.0386,49955
EMILY MARY,AUSMUS,Water Polo,2024,Riverside,California,CA,33.9381,-117.3949,2332836
ALEX,BOWEN,Water Polo,2024,Santee,California,CA,32.8554,-116.9851,59497
LUCA,CUPIDO,Water Polo,2024,Santa Margherita Ligure,Italy,,,,
HANNES,DAUBE,Water Polo,2024,Long Beach,California,CA,33.7977,-118.167,462293
CHASE WILLIAM,DODD,Water Polo,2024,Long Beach,California,CA,33.7977,-118.167,462293
RYDER,DODD,Water Polo,2024,Long Beach,California,CA,33.7977,-118.167,462293
RACHEL,FATTAL,Water Polo,2024,Seal Beach,California,CA,33.7542,-118.0714,25046
JENNA MICHELLE,FLYNN,Water Polo,2024,San Jose,California,CA,37.3012,-121.848,1771413
KALEIGH,GILCHRIST,Water Polo,2024,Newport Beach,California,CA,33.6151,-117.8668,85159
BEN,HALLOCK,Water Polo,2024,Westlake Village,California,CA,34.1369,-118.822,7948
DREW,HOLLAND,Water Polo,2024,Orinda,California,CA,37.8808,-122.179,19477
JOHNNY,HOOPER,Water Polo,2024,Los Angeles,California,CA,34.1141,-118.4068,11922389
MAX,IRVING,Water Polo,2024,Long Beach,California,CA,33.7977,-118.167,462293
ASHLEIGH,JOHNSON,Water Polo,2024,Miami,Florida,FL,25.784,-80.2101,6080145
AMANDA,LONGAN,Water Polo,2024,Moorpark,California,CA,34.2861,-118.8768,36073
MADELINE,MUSSELMAN,Water Polo,2024,Newport Beach,California,CA,33.6151,-117.8668,85159
RYANN,NEUSHUL,Water Polo,2024,Goleta,California,CA,34.4361,-119.8594,32640
ALEX,OBERT,Water Polo,2024,Loomis,California,CA,38.8093,-121.1955,6831
TARA,PRENTICE,Water Polo,2024,Temecula,California,CA,33.4928,-117.1315,110114
JORDAN,RANEY,Water Polo,2024,Manhattan Beach,California,CA,33.8894,-118.3967,35123
JEWEL,ROEMER,Water Polo,2024,Martinez,California,CA,37.9985,-122.1161,37093
JOVANA,SEKULIC,Water Polo,2024,Haverford,Pennsylvania,,,,
MAGGIE,STEFFENS,Water Polo,2024,Danville,California,CA,37.8121,-121.9698,43449
MARKO,VAVIC,Water Polo,2024,Rancho Palos Verdes,California,CA,33.7554,-118.3634,41805
ADRIAN,WEINBERG,Water Polo,2024,Los Angeles,California,CA,34.1141,-118.4068,11922389
DYLAN,WOODHEAD,Water Polo,2024,San Rafael,California,CA,37.9905,-122.5221,60891
JOURDAN,DELACRUZ,Weightlifting,2024,Wylie,Texas,TX,33.0362,-96.5161,57063
WES,KITTS,Weightlifting,2024,Knoxville,Tennessee,TN,35.9692,-83.9496,615829
HAMPTON,MORRIS,Weightlifting,2024,Marietta,Georgia,GA,33.9533,-84.5422,61387
OLIVIA,REEVES,Weightlifting,2024,Chattanooga,Tennessee,TN,35.066,-85.2481,406849
MARY,THEISEN LAPPEN,Weightlifting,2024,Eau Claire,Wisconsin,WI,44.8197,-91.4948,109491
KAMAL ,BEY,Wrestling,2024,Colorado Springs,Colorado,CO,38.8674,-104.7605,638194
KENNEDY ,BLADES,Wrestling,2024,Chicago,Illinois,IL,41.8375,-87.6866,8497759
AARON ,BROOKS,Wrestling,2024,Hagerstown,Maryland,MD,39.6401,-77.7217,195261
ADAM ,COON,Wrestling,2024,Fowlerville,Michigan,MI,42.6596,-84.0743,2951
KYLE ,DAKE,Wrestling,2024,Lansing,New York,,,,
AMIT,ELOR,Wrestling,2024,Walnut Creek,California,CA,37.9024,-122.0399,69809
SARAH ,HILDEBRANDT,Wrestling,2024,Granger,Indiana,IN,41.7374,-86.1348,30019
PAYTON ,JACOBSON,Wrestling,2024,Elkhorn,Wisconsin,WI,42.6713,-88.5377,10253
SPENCER ,LEE,Wrestling,2024,Iowa City,Iowa,IA,41.6559,-91.5303,130736
HELEN ,MAROULIS,Wrestling,2024,Rockville,Maryland,MD,39.0834,-77.1553,67142
KAYLA ,MIRACLE,Wrestling,2024,Tempe,Arizona,AZ,33.3881,-111.9319,181005
MASON ,PARRIS,Wrestling,2024,Lawrenceburg,Indiana,IN,39.0986,-84.8713,5140
DOMINIQUE ,PARRISH,Wrestling,2024,Scotts Valley,California,CA,37.0555,-122.0118,12239
JOSEF ,RAU,Wrestling,2024,Chicago,Illinois,IL,41.8375,-87.6866,8497759
ZAIN ,RETHERFORD,Wrestling,2024,Benton,Pennsylvania,PA,41.1955,-76.3847,502
KYLE ,SNYDER,Wrestling,2024,Woodbine,Maryland,,,,
David,Robertson,Baseball,2020,Tuscaloosa,Alabama,AL,33.2348,-87.5268,164414
James,Hall,Shooting,2020,Anniston,Alabama,AL,33.6712,-85.8135,79717
Sandra,Uptagrafft,Shooting,2020,Phenix City,Alabama,AL,32.4585,-85.0253,38413
Haylie,McCleney,Softball ,2020,Morris,Alabama,AL,33.7464,-86.8042,2273
Paige,Madden,Swimming,2020,Mobile,Alabama,AL,30.6782,-88.1162,320855
Zach,Harting,Swimming,2020,Madison,Alabama,AL,34.7114,-86.7626,56967
JuVaughn,Harrison,Track and Field,2020,Huntsville,Alabama,AL,34.6981,-86.6412,349482
Quanesha,Burks,Track and Field,2020,Harselle,Alabama,,,,
Alev,Kelter,Rugby,2020,Eagle River,Alaska,,,,
Lydia,Jacoby,Swimming,2020,Seward,Alaska,AK,60.1124,-149.3925,2768
Brady,Ellison,Archery,2020,Globe,Arizona,AZ,33.387,-110.7513,7230
Jamie,Westbrook,Baseball,2020,Chandler,Arizona,AZ,33.2825,-111.8514,275618
Brandon,McNulty,Cycling,2020,Phoenix,Arizona,AZ,33.5722,-112.0892,4064275
Corben,Sharrah,Cycling,2020,Tucson,Arizona,AZ,32.1541,-110.8787,878320
Delaney,Schnell,Diving,2020,Tucson,Arizona,AZ,32.1541,-110.8787,878320
Jade,Carey,Gymnastic (Artistic),2020,Phoenix,Arizona,AZ,33.5722,-112.0892,4064275
Mykayla,Skinner,Gymnastic (Artistic),2020,Gilbert,Arizona,AZ,33.31,-111.7463,267267
Brett,Thompson,Rugby,2020,Tempe,Arizona,AZ,33.3881,-111.9319,181005
Maceo,Brown,Rugby,2020,Tempe,Arizona,AZ,33.3881,-111.9319,181005
Alana,Smith,Skateboarding,2020,Mesa,Arizona,AZ,33.4015,-111.7178,503390
Jagger,Eaton,Skateboarding,2020,Mesa,Arizona,AZ,33.4015,-111.7178,503390
Julie,Ertz,Soccer,2020,Mesa,Arizona,AZ,33.4015,-111.7178,503390
Bethanie,Mattek-Sands,Tennis,2020,Phoenix,Arizona,AZ,33.5722,-112.0892,4064275
Abdi,Abdirahman,Track and Field,2020,Tucson,Arizona,AZ,32.1541,-110.8787,878320
Aliphine,Tuliamuk,Track and Field,2020,Flagstaff,Arizona,AZ,35.1872,-111.6194,80167
Will,Claye,Track and Field,2020,Phoenix,Arizona,AZ,33.5722,-112.0892,4064275
Sarah,Sponcil,Beach Volleyball,2020,Phoenix,Arizona,AZ,33.5722,-112.0892,4064275
Kayla,Miracle,Wrestling,2020,Phoenix,Arizona,AZ,33.5722,-112.0892,4064275
Kayle,Browning,Shooting,2020,Wooster,Arkansas,AR,35.1998,-92.4503,1155
Tara,Davis,Track and Field,2020,Fayetteville,Arkansas,AR,36.0714,-94.1661,394650
Jack,Williams,Archery,2020,Chula Vista,California,CA,32.6281,-117.0144,276103
Phillip,Chew,Badminton,2020,Orange,California,CA,33.8038,-117.8218,138728
Ryan,Chew,Badminton,2020,Orange,California,CA,33.8038,-117.8218,138728
Timothy,Lam,Badminton,2020,Mountain View,California,CA,37.4001,-122.0796,82132
Anthony,Gose,Baseball,2020,Bellflower,California,CA,33.888,-118.1271,78352
Eric,Filia,Baseball,2020,Huntington Beach,California,CA,33.696,-118.0018,197481
Joe,Ryan,Baseball,2020,San Francisco,California,CA,37.7558,-122.4449,3364979
Nick,Allen,Baseball,2020,San Diego,California,CA,32.8313,-117.1222,3046560
Katie,Lou Samuelson,Basketball(3x3),2020,Huntington Beach,California,CA,33.696,-118.0018,197481
Kelsey,Plum,Basketball(3x3),2020,Poway,California,CA,32.9871,-117.0201,48737
Damian,Lillard,Basketball,2020,Oakland,California,CA,37.7904,-122.2166,437825
Jrue,Holiday,Basketball,2020,Los Angeles,California,CA,34.1141,-118.4068,11922389
Kevin,Love,Basketball,2020,Santa Monica,California,CA,34.0235,-118.481,92168
Chelsea,Gray,Basketball,2020,Hayward,California,CA,37.6328,-122.0766,160602
Diana,Taurasi,Basketball,2020,Chino,California,CA,33.9836,-117.6654,91008
Richard,Torrez,Boxing,2020,Tulare,California,CA,36.1995,-119.34,69261
Amber,Neben,Cycling,2020,Lake Forest,California,CA,33.6605,-117.6714,85583
Coryn,Rivera,Cycling,2020,Newport Beach,California,CA,33.6151,-117.8668,85159
Gavin,Hoover,Cycling,2020,Manhattan Beach,California,CA,33.8894,-118.3967,35123
Haley,Batten,Cycling,2020,Los Gatos,California,CA,37.2304,-121.9562,33093
Jennifer,Valente,Cycling,2020,San Diego,California,CA,32.8313,-117.1222,3046560
Kate,Courtney,Cycling,2020,Kentfield,California,CA,37.9481,-122.5497,7410
Leah,Thomas,Cycling,2020,Boulder Creek,California,CA,37.1341,-122.1272,5492
Megan,Jastrab,Cycling,2020,Apple Valley,California,CA,34.5352,-117.2109,75603
Ruth,Winder,Cycling,2020,Lafayette,California,CA,37.8919,-122.1189,25310
Brandon,Loschiavo,Diving,2020,Huntington Beach,California,CA,33.696,-118.0018,197481
Sabine,Schut-Kery,Equestrian,2020,Thousand Oaks,California,CA,34.1914,-118.8756,209570
Steffen,Peters,Equestrian,2020,San Diego,California,CA,32.8313,-117.1222,3046560
Nick,Itkin,Fencing,2020,Los Angeles,California,CA,34.1141,-118.4068,11922389
Bryson,Dechambeau,Golf,2020,Clovis,California,CA,36.8278,-119.683,120607
Colin,Morikawa,Golf,2020,La Canada,California,,,,
Xander,Schauffele,Golf,2020,San Diego,California,CA,32.8313,-117.1222,3046560
Samuel,Mikulak,Gymnastic (Artistic),2020,Newport Beach,California,CA,33.6151,-117.8668,85159
Isabelle,Connor,Gymnastics (Rhythmic),2020,Manhattan Beach,California,CA,33.8894,-118.3967,35123
Nicole,Ahsinger,Gymnastics (Trampoline),2020,San Diego,California,CA,32.8313,-117.1222,3046560
Sakura,Kokumai,Karate,2020,Stevenson Ranch,California,CA,34.3894,-118.5883,20484
Kara,Kohler,Rowing,2020,Clayton,California,CA,37.9404,-121.9301,11070
Michelle,Sechser,Rowing,2020,Folsom,California,CA,38.6668,-121.1422,81077
Danny,Barrett,Rugby,2020,Pacifica,California,CA,37.6113,-122.4782,38048
Folau,Niua,Rugby,2020,East Palo Alto,California,CA,37.4671,-122.1352,29520
Matai,Leuta,Rugby,2020,Marina,California,CA,36.681,-121.7892,22253
Steve,Tomasin,Rugby,2020,Santa Rosa,California,CA,38.4458,-122.7067,296180
Kayla,Canett,Rugby,2020,Fallbrook,California,CA,33.3693,-117.2259,33710
Naya,Tapper,Rugby,2020,Beaufort,California,,,,
Nia,Toliver*,Rugby,2020,Los Angeles,California,CA,34.1141,-118.4068,11922389
Charlie,Buckingham,Sailing,2020,Newport Beach,California,CA,33.6151,-117.8668,85159
Riley,Gibbs,Sailing,2020,Long Beach,California,CA,33.7977,-118.167,462293
Brian,Burrows,Shooting,2020,Fallbrook,California,CA,33.3693,-117.2259,33710
Sagen,Maddalena,Shooting,2020,Groveland,California,CA,37.8325,-120.2392,591
Brighton,Zeuner,Skateboarding,2020,Newport Beach,California,CA,33.6151,-117.8668,85159
Bryce,Wettstein,Skateboarding,2020,Encinitas,California,CA,33.0492,-117.261,61942
Cory,Juneau,Skateboarding,2020,San Diego,California,CA,32.8313,-117.1222,3046560
Jordyn,Barratt,Skateboarding,2020,Oceanside,California,CA,33.2247,-117.3083,173722
Nyjah,Huston,Skateboarding,2020,Laguna Beach,California,CA,33.5455,-117.7613,22943
Abigail,Dahlkemper,Soccer,2020,Menlo Park,California,CA,37.4685,-122.1673,33324
Alex,Morgan,Soccer,2020,Diamond Bar,California,CA,33.9992,-117.8161,54534
Catarina,Macario*,Soccer,2020,Los Angeles,California,CA,34.1141,-118.4068,11922389
Christen,Press,Soccer,2020,Palos Verdes Estates,California,CA,33.7872,-118.3973,13219
Lynn,Williams*,Soccer,2020,Fresno,California,CA,36.783,-119.7939,725276
Megan,Rapinoe,Soccer,2020,Redding,California,CA,40.5698,-122.365,117163
Tierna,Davidson,Soccer,2020,Menlo Park,California,CA,37.4685,-122.1673,33324
Alison,Aguilar,Softball ,2020,Orangevale,California,CA,38.6881,-121.2209,35852
Allyson,Carda,Softball ,2020,Elk Grove,California,CA,38.4161,-121.3842,176105
Aubree,Munro,Softball ,2020,Brea,California,CA,33.9254,-117.8655,47099
Dejah,Mulipola,Softball ,2020,Anaheim,California,CA,33.839,-117.8574,347111
Delaney,Spaulding,Softball ,2020,Rancho Cucamonga,California,CA,34.1247,-117.5667,174696
Janette,Reed,Softball ,2020,Placentia,California,CA,33.8807,-117.8553,51797
Madilyn,Nickles,Softball ,2020,Merced,California,CA,37.3057,-120.4779,160638
Monica,Abbott,Softball ,2020,Salinas,California,CA,36.6883,-121.6317,177410
Rachel,Garcia,Softball ,2020,Palmdale,California,CA,34.5944,-118.1057,166895
Valerie,Arioto,Softball ,2020,Pleasanton,California,CA,37.6663,-121.8805,78691
Kolohe,Andino,Surfing,2020,San Clemente,California,CA,33.4499,-117.6102,64232
Abbey,Weitzeil,Swimming,2020,Santa Clarita,California,CA,34.4175,-118.4964,268273
Bryce,Mefford,Swimming,2020,El Dorado Hills,California,CA,38.675,-121.049,49082
Haley,Anderson,Swimming,2020,Granite Bay,California,CA,38.7601,-121.1714,22180
Jake,Mitchell,Swimming,2020,Folsom,California,CA,38.6668,-121.1422,81077
Jordan,Wilimovsky,Swimming,2020,Malibou,California,,,,
Kathryn,McLaughlin,Swimming,2020,Dana Point,California,CA,33.4733,-117.6967,33025
Michael,Andrew,Swimming,2020,Encinitas,California,CA,33.0492,-117.261,61942
Tom,Shields,Swimming,2020,Huntington Beach,California,CA,33.696,-118.0018,197481
Kanak,Jha,Table Tennis,2020,Milpitas,California,CA,37.4336,-121.8921,79092
Lily,Zhang,Table Tennis,2020,Palo Alto,California,CA,37.3905,-122.1468,67901
Nikhil,Kumar,Table Tennis,2020,San Jose,California,CA,37.3012,-121.848,1771413
Xin,Zhou,Table Tennis,2020,Milpitas,California,CA,37.4336,-121.8921,79092
Marcos,Giron,Tennis,2020,Thousand Oaks,California,CA,34.1914,-118.8756,209570
Allyson,Felix,Track and Field,2020,Los Angeles,California,CA,34.1141,-118.4068,11922389
Brooke,Andersen,Track and Field,2020,Vista,California,CA,33.1896,-117.2386,98392
Chris,Benard,Track and Field,2020,Corona,California,CA,33.8616,-117.5649,158346
Cravon,Gillespie,Track and Field,2020,Pasadena,California,CA,34.1597,-118.139,137554
Isaiah,Jewett,Track and Field,2020,Inglewood,California,CA,33.9566,-118.3444,106806
Jenna,Prandini,Track and Field,2020,Clovis,California,CA,36.8278,-119.683,120607
Kendall,Ellis,Track and Field,2020,North Hollywood,California,,,,
Michael,Norman,Track and Field,2020,Murrieta,California,CA,33.5719,-117.1909,111899
Nick,Christie,Track and Field,2020,San Diego,California,CA,32.8313,-117.1222,3046560
Rachel,McCoy,Track and Field,2020,Inland Empire,California,,,,
Robyn,Stevens,Track and Field,2020,Vacaville,California,CA,38.3587,-121.9673,101631
Katie,Zaferes,Triathlon,2020,Santa Cruz,California,CA,36.9789,-122.0346,167835
Alix,Klineman,Beach Volleyball,2020,Manhattan Beach,California,CA,33.8894,-118.3967,35123
April,Ross,Beach Volleyball,2020,Costa Mesa,California,CA,33.6667,-117.9135,111490
Kelly,Claes,Beach Volleyball,2020,Fullerton,California,CA,33.8841,-117.9279,142280
David,Smith,Volleyball,2020,Saugus,California,,,,
Garrett,Muagututia,Volleyball,2020,Oceanside,California,CA,33.2247,-117.3083,173722
Kyle,Ensing,Volleyball,2020,Valencia,California,,,,
Taylor,Sander,Volleyball,2020,Corona,California,CA,33.8616,-117.5649,158346
Torey,DeFalco,Volleyball,2020,Huntington Beach,California,CA,33.696,-118.0018,197481
Justine,Wong-Orantes,Volleyball,2020,Cypress,California,CA,33.8171,-118.0386,49955
Alex,Wolf,Water Polo,2020,Huntington Beach,California,CA,33.696,-118.0018,197481
Alex,Bowen,Water Polo,2020,Santee,California,CA,32.8554,-116.9851,59497
Alex,Obert,Water Polo,2020,Loomis,California,CA,38.8093,-121.1955,6831
Ben,Hallock,Water Polo,2020,Studio City,California,,,,
Drew,Holland,Water Polo,2020,Orinda,California,CA,37.8808,-122.179,19477
Dylan,Woodhead,Water Polo,2020,San Anselmo,California,CA,37.9821,-122.5699,12761
Hannes,Daube,Water Polo,2020,Long Beach,California,CA,33.7977,-118.167,462293
Jesse,Smith*,Water Polo,2020,Coronado,California,CA,32.6649,-117.1604,18871
Johnny,Hooper,Water Polo,2020,Los Angeles,California,CA,34.1141,-118.4068,11922389
Marko,Vavic,Water Polo,2020,Rancho Palos Verdes,California,CA,33.7554,-118.3634,41805
Max,Irving,Water Polo,2020,Long Beach,California,CA,33.7977,-118.167,462293
Alys,Williams,Water Polo,2020,Huntington Beach,California,CA,33.696,-118.0018,197481
Aria,Fischer,Water Polo,2020,Laguna Beach,California,CA,33.5455,-117.7613,22943
Amanda,Longan,Water Polo,2020,Moorpark,California,CA,34.2861,-118.8768,36073
Jamie,Neushul*,Water Polo,2020,Isla Vista,California,CA,34.4128,-119.8614,14722
Kaleigh,Gilchrist,Water Polo,2020,Newport Beach,California,CA,33.6151,-117.8668,85159
Madeline,Musselman,Water Polo,2020,Newport Beach,California,CA,33.6151,-117.8668,85159
Makenzie,Fischer,Water Polo,2020,Laguna Beach,California,CA,33.5455,-117.7613,22943
Maggie,Steffens,Water Polo,2020,Danville,California,CA,37.8121,-121.9698,43449
Melissa,Seidemann,Water Polo,2020,Walnut Creek,California,CA,37.9024,-122.0399,69809
Paige,Hauschild,Water Polo,2020,Santa Barbara,California,CA,34.4285,-119.7202,199023
Rachel,Fattal,Water Polo,2020,Seal Beach,California,CA,33.7542,-118.0714,25046
Stephanie,Haralabidis,Water Polo,2020,Long Beach,California,CA,33.7977,-118.167,462293
Sarah,Robles,Weightlifting,2020,Desert Hot Springs,California,CA,33.955,-116.5429,32386
Zachary,Lokken,Canoe/Kayak,2020,Durango,Colorado,CO,37.2659,-107.8781,19148
Christopher,Blevins,Cycling,2020,Durango,Colorado,CO,37.2659,-107.8781,19148
Erin,Huck,Cycling,2020,Boulder,Colorado,CO,40.0248,-105.2524,118090
Maddie,Godby,Cycling,2020,Louisville,Colorado,CO,39.971,-105.1441,20920
Yul,Moldauer,Gymnastic (Artistic),2020,Arvada,Colorado,CO,39.832,-105.151,123066
Amro,Elgeziry,Pentathlon,2020,Colorado Springs,Colorado,CO,38.8674,-104.7605,638194
Samantha,Schultz,Pentathlon,2020,Littleton,Colorado,CO,39.5915,-105.0188,45531
Jessica,Thoennes,Rowing,2020,Denver,Colorado,CO,39.762,-104.8758,2687458
Kendall,Chase,Rowing,2020,Evergreen,Colorado,CO,39.6349,-105.3356,8972
Cody,Melphy,Rugby,2020,Littleton,Colorado,CO,39.5915,-105.0188,45531
Amber,English,Shooting,2020,Colorado Springs,Colorado,CO,38.8674,-104.7605,638194
Lucas,Kozeniesky,Shooting,2020,Colorado Springs,Colorado,CO,38.8674,-104.7605,638194
William,Shaner,Shooting,2020,Colorado Springs,Colorado,CO,38.8674,-104.7605,638194
Lindsey,Horan,Soccer,2020,Golden,Colorado,CO,39.7406,-105.2118,20461
Brooke,Raboutou,Sport Climbing,2020,Boulder,Colorado,CO,40.0248,-105.2524,118090
Colin,Duffy,Sport Climbing,2020,Broomfield,Colorado,CO,39.9542,-105.0526,73946
Anastasija,Zolotic,Taekwondo,2020,Colorado Springs,Colorado,CO,38.8674,-104.7605,638194
Annie,Kunz,Track and Field,2020,Denver,Colorado,CO,39.762,-104.8758,2687458
Benard,Keter,Track and Field,2020,Colorado Springs,Colorado,CO,38.8674,-104.7605,638194
Elise,Cranny,Track and Field,2020,Boulder,Colorado,CO,40.0248,-105.2524,118090
Emma,Coburn,Track and Field,2020,Crested Butte,Colorado,CO,38.8676,-106.9773,1434
Hillary,Bor,Track and Field,2020,Colorado Springs,Colorado,CO,38.8674,-104.7605,638194
Mason,Finley,Track and Field,2020,Chaffee County,Colorado,,,,
Paul,Chelimo,Track and Field,2020,Colorado Springs,Colorado,CO,38.8674,-104.7605,638194
Valarie,Allman,Track and Field,2020,Longmont,Colorado,CO,40.1686,-105.1005,101642
Valerie,Constien,Track and Field,2020,Edwards,Colorado,CO,39.6215,-106.6184,10721
William,Kincaid,Track and Field,2020,Littleton,Colorado,CO,39.5915,-105.0188,45531
Kevin,McDowell,Triathlon,2020,Colorado Springs,Colorado,CO,38.8674,-104.7605,638194
Summer,Rappaport,Triathlon,2020,Thornton,Colorado,CO,39.9197,-104.9438,141799
Haleigh,Washington,Volleyball,2020,Colorado Springs,Colorado,CO,38.8674,-104.7605,638194
Jordyn,Poulter,Volleyball,2020,Aurora,Colorado,CO,39.7083,-104.7237,387349
Adeline,Gray,Wrestling,2020,Denver,Colorado,CO,39.762,-104.8758,2687458
Ildar,Hafizov,Wrestling,2020,Colorado Springs,Colorado,CO,38.8674,-104.7605,638194
Jacarra,Winchester,Wrestling,2020,San Leandro,Colorado,,,,
Tracy,Hancock,Wrestling,2020,Fountain,Colorado,CO,38.6886,-104.6829,29498
Austin,Hack,Rowing,2020,Old Lyme,Connecticut,,,,
Liam,Corrigan,Rowing,2020,Old Lyme,Connecticut,,,,
Alexis,Sablone,Skateboarding,2020,Old Saybrook,Connecticut,,,,
Alyssa,Naeher,Soccer,2020,Stratford,Connecticut,,,,
Kieran,Smith,Swimming,2020,Ridgefield,Connecticut,,,,
Marquis,Dendy,Track and Field,2020,Wilmington,Delaware,DE,39.7415,-75.5416,71034
Kevin,Durant,Basketball,2020,Washington,D.C.,,,,
Katharine,Holmes,Fencing,2020,Washington,D.C.,,,,
Frances,Tiafoe,Tennis,2020,Washington,D.C.,,,,
Taylor,Knibb,Triathlon,2020,Washington,D.C.,,,,
Eddy,Alvarez,Baseball,2020,Miami,Florida,FL,25.784,-80.2101,6080145
Mark,Kolozsvary,Baseball,2020,Eustis,Florida,FL,28.8563,-81.6771,23101
Nick,Martinez,Baseball,2020,Miami,Florida,FL,25.784,-80.2101,6080145
Triston,Casas,Baseball,2020,Pembroke Pines,Florida,FL,26.0128,-80.3382,170472
Sylvia,Fowles,Basketball,2020,Miami,Florida,FL,25.784,-80.2101,6080145
Lily,Williams,Cycling,2020,Tallahassee,Florida,FL,30.4551,-84.2527,258696
Jordan,Windle,Diving,2020,Fort Lauderdale,Florida,FL,26.1412,-80.1464,182673
Adrienne,Lyle,Equestrian,2020,Wellington,Florida,FL,26.6461,-80.2699,61373
Laura,Kraut,Equestrian,2020,Wellington,Florida,FL,26.6461,-80.2699,61373
Kent,Farrington,Equestrian,2020,Wellington,Florida,FL,26.6461,-80.2699,61373
Jessica,Korda,Golf,2020,Jupiter,Florida,FL,26.92,-80.1128,60926
Lexi,Thompson,Golf,2020,Coral Springs,Florida,FL,26.2702,-80.2591,133801
Nelly,Korda,Golf,2020,Bradenton,Florida,FL,27.4901,-82.5757,55795
Angelica,Delgado,Judo,2020,Miami,Florida,FL,25.784,-80.2101,6080145
Ariel,Torres,Karate,2020,Hialeah,Florida,FL,25.8696,-80.3045,222996
Ben,Davison,Rowing,2020,Inverness,Florida,FL,28.8416,-82.3418,7602
Clark,Dean,Rowing,2020,Sarasota,Florida,FL,27.3387,-82.5432,55508
Katelin,Guregian,Rowing,2020,Orlando,Florida,FL,28.4773,-81.337,1882705
Perry,Baker,Rugby,2020,Flagler Palm Coast,Florida,FL,,,
Anna,Weis,Sailing,2020,Fort Lauderdale,Florida,FL,26.1412,-80.1464,182673
David,Hughes,Sailing,2020,Miami,Florida,FL,25.784,-80.2101,6080145
Lara,Dallman-Weiss,Sailing,2020,Miami,Florida,FL,25.784,-80.2101,6080145
Luke,Muller,Sailing,2020,Fort Pierce,Florida,FL,27.4255,-80.3431,47153
Nikole,Barnes,Sailing,2020,Miami,Florida,FL,25.784,-80.2101,6080145
Paige,Railey,Sailing,2020,Clearwater,Florida,FL,27.979,-82.7623,116984
Pedro,Pascual,Sailing,2020,Miami,Florida,FL,25.784,-80.2101,6080145
Mary,Tucker,Shooting,2020,Sarasota,Florida,FL,27.3387,-82.5432,55508
Jake,Ilardi,Skateboarding,2020,Osprey,Florida,FL,27.1914,-82.48,6195
Zion,Wright,Skateboarding,2020,Jupiter,Florida,FL,26.92,-80.1128,60926
Michelle,Moultrie,Softball ,2020,Jacksonville,Florida,FL,30.3322,-81.6749,1288298
Caroline,Marks,Surfing,2020,Melbourne Beach,Florida,FL,28.0668,-80.561,3214
Caeleb,Dressel,Swimming,2020,Orange Park,Florida,FL,30.1706,-81.7041,9047
Emma,Weyant,Swimming,2020,Sarasota,Florida,FL,27.3387,-82.5432,55508
Bobby,Finke,Swimming,2020,Clearwater,Florida,FL,27.979,-82.7623,116984
Ryan,Murphy,Swimming,2020,Ponte Vedra Beach,Florida,FL,,,
Alison,Riske,Tennis,2020,Orlando,Florida,FL,28.4773,-81.337,1882705
Coco,Gauff,Tennis,2020,Boynton Beach,Florida,FL,26.5281,-80.0811,80068
Nicole,Melichar,Tennis,2020,Stuart,Florida,FL,27.1959,-80.2444,17639
Donald,Scott,Track and Field,2020,Apopka,Florida,FL,28.7015,-81.5316,55056
Erriyon,Knighton,Track and Field,2020,Tampa,Florida,FL,27.9945,-82.4447,2861173
Garrett,Scantling,Track and Field,2020,Jacksonville,Florida,FL,30.3322,-81.6749,1288298
Jessica,Ramsey,Track and Field,2020,Boynton Beach,Florida,FL,26.5281,-80.0811,80068
Kaylin,Whitney,Track and Field,2020,Clermont,Florida,FL,28.5325,-81.7208,43266
Teahna,Daniels,Track and Field,2020,Orlando,Florida,FL,28.4773,-81.337,1882705
Trayvon,Bromell,Track and Field,2020,St. Petersburg,Florida,FL,27.7931,-82.6652,259343
Nicholas,Lucena,Beach Volleyball,2020,Cooper City,Florida,FL,26.0463,-80.2862,34046
Philip,Dalhausser,Beach Volleyball,2020,Ormond Beach,Florida,FL,29.2985,-81.1014,43127
Foluke,Akinradewo,Volleyball,2020,Fort Lauderdale,Florida,FL,26.1412,-80.1464,182673
Ashleigh,Johnson,Water Polo,2020,Miami,Florida,FL,25.784,-80.2101,6080145
Mattie,Rogers,Weightlifting,2020,Apopka,Florida,FL,28.7015,-81.5316,55056
Alejandro,Sancho,Wrestling,2020,Miami,Florida,FL,25.784,-80.2101,6080145
Anthony,Carter,Baseball,2020,Lawrence,Georgia,GA,,,
Tyler,Austin,Baseball,2020,Conyers,Georgia,GA,33.6646,-83.9966,17415
Edwin,Jackson Jr.,Baseball,2020,Columbus,Georgia,GA,32.51,-84.8771,264282
Allisha,Gray,Basketball(3x3),2020,Sandersville,Georgia,GA,32.9827,-82.8089,5727
Brody,Malone,Gymnastic (Artistic),2020,Summerville,Georgia,GA,34.4788,-85.3491,4381
Henry,Leverett,Shooting,2020,Bainbridge,Georgia,GA,30.9052,-84.5732,14234
Jack,Leverett III,Shooting,2020,Bainbridge,Georgia,GA,30.9052,-84.5732,14234
Vincent,Hancock,Shooting,2020,Eatonton,Georgia,GA,33.3258,-83.3886,6369
Emily,Sonnett,Soccer,2020,Marietta,Georgia,GA,33.9533,-84.5422,61387
Jane,Campbell*,Soccer,2020,Kennesaw,Georgia,GA,34.026,-84.6177,33360
Kelley,O'Hara,Soccer,2020,Fayetteville,Georgia,GA,33.4501,-84.471,19010
Brooks,Curry,Swimming,2020,Dunwoody,Georgia,GA,33.9418,-84.3122,51458
Jay,Litherland,Swimming,2020,Athens,Georgia,GA,33.9508,-83.3689,143173
Gunnar,Bentz,Swimming,2020,Atlanta,Georgia,GA,33.7628,-84.422,5180179
Natalie,Hinds,Swimming,2020,Athens,Georgia,GA,33.9508,-83.3689,143173
Daniel,Haugh,Track and Field,2020,Marietta,Georgia,GA,33.9533,-84.5422,61387
Daniel,Roberts,Track and Field,2020,Atlanta,Georgia,GA,33.7628,-84.422,5180179
Elija,Godwin,Track and Field,2020,Covington,Georgia,GA,33.6049,-83.8463,14190
Javianne,Oliver,Track and Field,2020,Monroe,Georgia,GA,33.799,-83.7161,15036
Kendell,Williams,Track and Field,2020,Kennesaw,Georgia,GA,34.026,-84.6177,33360
Kenny,Selmon,Track and Field,2020,Atlanta,Georgia,GA,33.7628,-84.422,5180179
Martin,Iosefo,Rugby,2020,Wahiawa,Hawaii,HI,21.5012,-158.0178,17400
Heimana,Reynolds,Skateboarding,2020,Honolulu,Hawaii,HI,21.3294,-157.846,348547
Carissa,Moore,Surfing,2020,Honolulu,Hawaii,HI,21.3294,-157.846,348547
John,Florence,Surfing,2020,Haleiwa,Hawaii,HI,21.5965,-158.1003,4708
Taylor,Crabb,Beach Volleyball,2020,Honolulu,Hawaii,HI,21.3294,-157.846,348547
Erik,Shoji,Volleyball,2020,Honolulu,Hawaii,HI,21.3294,-157.846,348547
Kawika,Shoji,Volleyball,2020,Honolulu,Hawaii,HI,21.3294,-157.846,348547
Micah,Christenson,Volleyball,2020,Honolulu,Hawaii,HI,21.3294,-157.846,348547
Jewell,Loyd,Basketball,2020,Lincolnwood,Illinois,IL,42.0054,-87.733,13268
Anne-Elizabeth,Stone,Fencing,2020,Chicago,Illinois,IL,41.8375,-87.6866,8497759
Camilla,Feeley,Gymnastics (Rhythmic),2020,Deerfield,Illinois,IL,42.1654,-87.8516,19173
Evita,Griskenas,Gymnastics (Rhythmic),2020,Orland Park,Illinois,IL,41.6075,-87.8619,58345
Laura,Zeng,Gymnastics (Rhythmic),2020,Libertyville,Illinois,IL,42.287,-87.967,20555
Lili,Mizuno,Gymnastics (Rhythmic),2020,Northbrook,Illinois,IL,42.1292,-87.8352,34950
Nicole,Sladkov,Gymnastics (Rhythmic),2020,Vernon Hills,Illinois,IL,42.234,-87.9608,26750
Nefeli,Papadakis,Judo,2020,Gurnee,Illinois,IL,42.3708,-87.9392,30629
Lauren,Doyle,Rugby,2020,Boody,Illinois,IL,39.7644,-89.0467,411
Maggie,Shea,Sailing,2020,Wilmette,Illinois,IL,42.0771,-87.7282,27801
Casey,Krueger*,Soccer,2020,Naperville,Illinois,IL,41.748,-88.1659,149089
Olivia,Smoliga,Swimming,2020,Chicago,Illinois,IL,41.8375,-87.6866,8497759
Darryl,Sullivan Jr,Track and Field,2020,Marion,Illinois,IL,37.7345,-88.942,16867
David,Kendziera,Track and Field,2020,Mt. Prospect,Illinois,,,,
Kelsey,Card,Track and Field,2020,Carlinville,Illinois,IL,39.2775,-89.8762,5724
Tori,Franklin,Track and Field,2020,Chicago,Illinois,IL,41.8375,-87.6866,8497759
Zach,Ziemek,Track and Field,2020,Itasca,Illinois,IL,41.9772,-88.0183,9627
Thomas,Jaeschke,Volleyball,2020,Wheaton,Illinois,IL,41.8561,-88.1085,53673
Kelsey,Robinson,Volleyball,2020,Bartlett,Illinois,IL,41.9804,-88.2071,40829
Michelle,Bartsch-Hackley,Volleyball,2020,Champaign,Illinois,IL,40.1142,-88.2737,150179
Skylar,Diggins-Smith,Basketball,2020,South Bend,Indiana,IN,41.6767,-86.2696,278061
Chloe,Dygert,Cycling,2020,Brownsburg,Indiana,IN,39.8337,-86.383,29379
Felicia,Stancil,Cycling,2020,Indianapolis,Indiana,IN,39.7771,-86.1458,1729849
Alec,Yoder,Gymnastic (Artistic),2020,Indianapolis,Indiana,IN,39.7771,-86.1458,1729849
Joe,Schroeder,Rugby,2020,Westfield,Indiana,IN,40.0341,-86.1529,48262
Blake,Pieroni,Swimming,2020,Chesterton,Indiana,IN,41.5997,-87.055,14191
Drew,Kibler,Swimming,2020,Carmel,Indiana,IN,39.965,-86.146,99453
Michael,Brinegar,Swimming,2020,Columbus,Indiana,IN,39.2093,-85.9183,50896
Lilly,King,Swimming,2020,Evansville,Indiana,IN,37.9881,-87.5341,203661
Rajeev,Ram,Tennis,2020,Carmel,Indiana,IN,39.965,-86.146,99453
Cole,Hocker,Track and Field,2020,Indianapolis,Indiana,IN,39.7771,-86.1458,1729849
Lynna,Irby,Track and Field,2020,Indianapolis,Indiana,IN,39.7771,-86.1458,1729849
Rachel,Dincoff,Track and Field,2020,Auburn,Indiana,IN,41.3666,-85.0559,13316
Andrea,Drews,Volleyball,2020,Elkhart,Indiana,IN,41.6916,-85.9627,149423
Sarah,Hildebrandt,Wrestling,2020,Granger,Indiana,IN,41.7374,-86.1348,30019
Karissa,Schweizer,Track and Field,2020,Urbandale,Iowa,IA,41.639,-93.7812,45591
Thomas,Gilman,Wrestling,2020,Iowa City,Iowa,IA,41.6559,-91.5303,130736
Derek,Starling,Baseball,2020,Gardner,Kansas,KS,38.8122,-94.9275,23488
Derrick,Mein,Shooting,2020,Paola,Kansas,KS,38.5788,-94.8617,5742
Adrianna,Franch,Soccer,2020,Salina,Kansas,KS,38.8136,-97.6143,46734
Kelsey,Stewart,Softball ,2020,Wichita,Kansas,KS,37.6895,-97.3443,509003
Gerek,Meinhardt,Fencing,2020,Lexington,Kentucky,KY,38.0423,-84.4587,321276
Lee,Kiefer,Fencing,2020,Lexington,Kentucky,KY,38.0423,-84.4587,321276
Justin,Thomas,Golf,2020,Louisville,Kentucky,KY,38.1663,-85.6485,963812
Brooke,Forde,Swimming,2020,Louisville,Kentucky,KY,38.1663,-85.6485,963812
Ronnie,Baker,Track and Field,2020,Louisville,Kentucky,KY,38.1663,-85.6485,963812
Yared,Nuguse,Track and Field,2020,Louisville,Kentucky,KY,38.1663,-85.6485,963812
Aliaksei,Shostak,Gymnastics (Trampoline),2020,Lafayette,Louisiana,LA,30.2082,-92.0325,237565
Meghan,O'Leary,Rowing,2020,Baton Rouge,Louisiana,LA,30.442,-91.1311,635671
Aleia,Hobbs,Track and Field,2020,New Orleans,Louisiana,LA,30.0687,-89.9288,932759
Morgann,LeLeux,Track and Field,2020,New Iberia,Louisiana,LA,30.0049,-91.8202,28363
Vernon,Norwood,Track and Field,2020,New Orleans,Louisiana,LA,30.0687,-89.9288,932759
Rachel,Schneider,Track and Field,2020,Sanford,Maine,ME,43.4244,-70.7573,21986
Abby,Gustaitis,Rugby,2020,White Hall,Maryland,MD,,,
Farrah,Hall,Sailing,2020,Annapolis,Maryland,MD,38.9706,-76.5047,40719
Andrew,Wilson,Swimming,2020,Bethesda,Maryland,MD,38.9866,-77.1188,66316
Chase,Kalisz,Swimming,2020,Bel Air,Maryland,MD,39.5348,-76.346,10630
Katie,Ledecky,Swimming,2020,Bethesda,Maryland,MD,38.9866,-77.1188,66316
Phoebe,Bacon,Swimming,2020,Chevy Chase,Maryland,MD,38.9944,-77.0738,9789
Christina,Clemons,Track and Field,2020,Landover,Maryland,MD,38.9241,-76.8875,24430
Helen,Maroulis,Wrestling,2020,Rockville,Maryland,MD,39.0834,-77.1553,67142
Kyle,Snyder,Wrestling,2020,Woodbine,Maryland,MD,,,
Jennifer,Mucino- Fernandez,Archery,2020,Boston,Massachusetts,MA,42.3188,-71.0852,4328315
Lindi,Schroeder,Artistic Swimming,2020,Andover,Massachusetts,MA,,,
Rashida,Ellis,Boxing,2020,Lynn,Massachusetts,MA,42.4781,-70.9664,100653
Michael,Hixon,Diving,2020,Amherst,Massachusetts,MA,,,
Andrew,Mackiewicz,Fencing,2020,Westwood,Massachusetts,MA,,,
Eli,Dershwitz,Fencing,2020,Sherborn,Massachusetts,MA,,,
Alexander,Richards,Rowing,2020,Watertown,Massachusetts,MA,,,
Andrew,Reed,Rowing,2020,Wayland,Massachusetts,MA,,,
Cicely,Madden,Rowing,2020,Weston,Massachusetts,MA,,,
Genevra,Stone,Rowing,2020,Newton,Massachusetts,MA,42.3316,-71.2085,88453
Gia,Doonan,Rowing,2020,Rochester,Massachusetts,MA,,,
Conor,Harrity,Rowing,2020,Weston,Massachusetts,MA,,,
Kristina,Wagner,Rowing,2020,Weston,Massachusetts,MA,,,
Regina,Salmons,Rowing,2020,Methuen,Massachusetts,MA,,,
Madison,Hughes,Rugby,2020,Lancaster,Massachusetts,MA,,,
Kristi,Kirshe,Rugby,2020,Franklin,Massachusetts,MA,,,
Kristen,Mewis,Soccer,2020,Hanson,Massachusetts,MA,,,
Samantha,Mewis,Soccer,2020,Hanson,Massachusetts,MA,,,
Gabrielle,Thomas,Track and Field,2020,Northampton,Massachusetts,MA,42.3266,-72.6745,28245
Heather,MacLean,Track and Field,2020,Peabody,Massachusetts,MA,42.5335,-70.9725,54204
Molly,Seidel,Track and Field,2020,Boston,Massachusetts,MA,42.3188,-71.0852,4328315
Devin,Booker,Basketball,2020,Grand Rapids,Michigan,MI,42.9619,-85.6562,609023
Draymond,Green,Basketball,2020,Saginaw,Michigan,MI,43.4199,-83.9501,115442
Hannah,Roberts,Cycling,2020,Buchanan,Michigan,MI,41.8283,-86.3656,4276
Ellen,Tomek,Rowing,2020,Flushing,Michigan,MI,43.0637,-83.8403,8349
Grace,Luczak,Rowing,2020,Ann Arbor,Michigan,MI,42.2759,-83.731,308983
Amanda,Chidester,Softball ,2020,Ann Arbor,Michigan,MI,42.2759,-83.731,308983
Allison,Schmitt,Swimming,2020,Canton,Michigan,MI,,,
Annie,Lazor,Swimming,2020,Beverly Hills,Michigan,MI,42.522,-83.2423,10550
Catie,De Loof,Swimming,2020,Grosse Pointe Park,Michigan,MI,42.3794,-82.9287,11513
Anavia,Battle,Track and Field,2020,Inkster,Michigan,MI,42.2935,-83.3148,25839
Grant,Fisher,Track and Field,2020,Grand Blanc,Michigan,MI,42.9258,-83.6181,8034
Steven,Bastien,Track and Field,2020,Ann Arbor,Michigan,MI,42.2759,-83.731,308983
Taylor,Manson,Track and Field,2020,Lansing,Michigan,MI,42.7142,-84.5601,322561
Kate,Nye,Weightlifting,2020,Rochester,Michigan,MI,42.6866,-83.1198,12978
Alise,Willoughby,Cycling,2020,St. Cloud,Minnesota,MN,45.534,-94.1718,116649
Shane,Wiskus,Gymnastic (Artistic),2020,Spring Park,Minnesota,MN,44.9364,-93.632,1919
Grace,McCallum,Gymnastic (Artistic),2020,Isanti,Minnesota,MN,45.4925,-93.2408,6850
Sunisa,Lee,Gymnastic (Artistic),2020,St. Paul,Minnesota,MN,44.9478,-93.1039,308806
Patrick,Sunderman,Shooting,2020,Farmington,Minnesota,MN,44.6572,-93.1687,23487
Kyra,Condie,Sport Climbing,2020,Shoreview,Minnesota,MN,45.0842,-93.1358,26846
Regan,Smith,Swimming,2020,Lakeville,Minnesota,MN,44.6774,-93.252,70696
Joe,Klecker,Track and Field,2020,Hopkins,Minnesota,MN,44.9259,-93.4056,18752
Mason,Ferlic,Track and Field,2020,Minneapolis,Minnesota,MN,44.9635,-93.2678,2892569
Payton,Otterdahl,Track and Field,2020,Rosemount,Minnesota,MN,44.7466,-93.0661,25993
Jordan,Thompson,Volleyball,2020,Minneapolis,Minnesota,MN,44.9635,-93.2678,2892569
Gable,Steveson,Wrestling,2020,Minneapolis,Minnesota,MN,44.9635,-93.2678,2892569
Brittney,Reese,Track and Field,2020,Gulfport,Mississippi,MS,30.4274,-89.0704,228022
Cory,McGee,Track and Field,2020,Pass Christian,Mississippi,MS,30.327,-89.2436,5802
Erica,Bougard,Track and Field,2020,Byhalia,Mississippi,MS,34.869,-89.689,1990
Sam,Kendricks,Track and Field,2020,Oxford,Mississippi,MS,34.3627,-89.5336,25713
Shelby,McEwen,Track and Field,2020,Abbeville,Mississippi,MS,34.5034,-89.5025,395
Bradley,Beal,Basketball,2020,St. Louis,Missouri,MO,38.6359,-90.2451,2130881
Jayson,Tatum,Basketball,2020,St. Louis,Missouri,MO,38.6359,-90.2451,2130881
Napheesa,Collier,Basketball,2020,St. Charles,Missouri,MO,38.7954,-90.5157,70687
Tyler,Downs,Diving,2020,Ballwin,Missouri,MO,38.595,-90.55,30948
Becky,Sauerbrunn,Soccer,2020,St. Louis,Missouri,MO,38.6359,-90.2451,2130881
Christopher,Nilsen,Track and Field,2020,Kansas City,Missouri,MO,39.1238,-94.5541,1689556
Courtney,Frerichs,Track and Field,2020,Nixa,Missouri,MO,37.0453,-93.2959,23523
Deanna,Price,Track and Field,2020,Old Monroe/Troy,Missouri,MO,,,
Gwen,Berry,Track and Field,2020,St. Louis,Missouri,MO,38.6359,-90.2451,2130881
KC,Lightfoot,Track and Field,2020,Lee'S Summit,Missouri,MO,,,
Nicole,Heavirland,Rugby,2020,Whitefish,Montana,MT,48.4328,-114.359,8098
Alison,Weisz,Shooting,2020,Belgrade,Montana,MT,45.7789,-111.1736,10941
Nickolaus,Mowrer,Shooting,2020,Butte,Montana,MT,45.902,-112.6571,34638
Maggie,Malone,Track and Field,2020,Geneva,Nebraska,NE,40.5308,-97.5974,2097
Jordan,Larson,Volleyball,2020,Hooper,Nebraska,NE,41.6116,-96.5487,980
Beiwen,Zhang,Badminton,2020,Las Vegas,Nevada,NV,36.2333,-115.2654,2248047
Yarisel,Ramirez,Boxing,2020,Las Vegas,Nevada,NV,36.2333,-115.2654,2248047
Connor,Fields,Cycling,2020,Las Vegas,Nevada,NV,36.2333,-115.2654,2248047
Perris,Benegas,Cycling,2020,Reno,Nevada,NV,39.5497,-119.8483,457702
Krysta,Palmer,Diving,2020,Gardnerville,Nevada,NV,38.939,-119.7369,6147
Danielle,Kang,Golf,2020,Las Vegas,Nevada,NV,36.2333,-115.2654,2248047
Alexis,Lagan,Shooting,2020,Boulder City,Nevada,NV,35.8407,-114.9257,14868
Arabella,Sims,Swimming,2020,Henderson,Nevada,NV,36.0133,-115.0381,318063
Bowen,Becker,Swimming,2020,Reno,Nevada,NV,39.5497,-119.8483,457702
Erica,Sullivan,Swimming,2020,Las Vegas,Nevada,NV,36.2333,-115.2654,2248047
Katie,Grimes,Swimming,2020,Las Vegas,Nevada,NV,36.2333,-115.2654,2248047
Vashti,Cunningham,Track and Field,2020,Las Vegas,Nevada,NV,36.2333,-115.2654,2248047
Ben,Stevenson,Water Polo,2020,Reno,Nevada,NV,39.5497,-119.8483,457702
Jessica,Parratto,Diving,2020,Dover,New Hampshire,NH,43.1887,-70.8845,74554
Todd,Frazier,Baseball,2020,Toms River,New Jersey,NJ,,,
Edrice,Adebayo,Basketball,2020,Newark,New Jersey,NJ,40.7245,-74.1725,307355
Sue,Bird,Basketball,2020,Syosset,New Jersey,NJ,,,
Jessica,Springsteen,Equestrian,2020,Colts Neck,New Jersey,NJ,,,
Dagmara,Wozniak,Fencing,2020,Avenel,New Jersey,NJ,40.5842,-74.2716,17211
Jackie,Dubrovich,Fencing,2020,Riverdale,New Jersey,NJ,40.9921,-74.3125,4081
Elizaveta,Pletneva,Gymnastics (Rhythmic),2020,Caldwell,New Jersey,NJ,40.8389,-74.2776,8897
Colton,Brown,Judo,2020,Piscataway,New Jersey,NJ,,,
Mary,Reckford,Rowing,2020,Short Hills,New Jersey,NJ,40.7389,-74.3278,14448
Tracy,Eisser,Rowing,2020,Fair Lawn,New Jersey,NJ,40.9359,-74.1177,34948
Carli,Lloyd,Soccer,2020,Delran,New Jersey,NJ,,,
Tobin,Heath,Soccer,2020,Basking Ridge,New Jersey,NJ,40.7061,-74.5568,7905
Nic,Fink,Swimming,2020,Morristown,New Jersey,NJ,40.7967,-74.4772,20126
Athing,Mu,Track and Field,2020,Trenton,New Jersey,NJ,40.2237,-74.7641,362179
Curtis,Thompson,Track and Field,2020,Florence,New Jersey,NJ,,,
English,Gardner,Track and Field,2020,Willingboro,New Jersey,NJ,,,
Keturah,Orji,Track and Field,2020,Mount Olive,New Jersey,NJ,,,
Sam,Mattis,Track and Field,2020,East Brunswick,New Jersey,NJ,,,
Sydney,McLaughlin,Track and Field,2020,Dunellen,New Jersey,NJ,40.5903,-74.4656,7598
Morgan,Pearson,Triathlon,2020,New Vernon,New Jersey,NJ,40.7343,-74.4877,869
Mariah,Duran,Skateboarding,2020,Albuquerque,New Mexico,NM,35.1054,-106.6465,769986
Anita,Alvarez,Artistic Swimming,2020,Kenmore,New York,NY,42.9646,-78.8713,15155
Patrick,Kivlehan,Baseball,2020,West Nyack,New York,NY,41.0907,-73.9714,3768
Stefanie,Dolson,Basketball(3x3),2020,Port Jervis,New York,NY,41.3783,-74.691,8725
Breanna,Stewart,Basketball,2020,North Syracuse,New York,NY,43.1339,-76.1304,6669
Tina,Charles,Basketball,2020,Jamaica,New York,NY,,,
Emma,White,Cycling,2020,Duanesburg,New York,NY,,,
Curtis,McDowald,Fencing,2020,Jamaica,New York,NY,,,
Daryl,Homer,Fencing,2020,Bronx,New York,NY,40.8501,-73.8662,1472654
Nicole,Ross,Fencing,2020,New York,New York,NY,40.6943,-73.9249,18908608
Yeisser,Ramirez,Fencing,2020,New York,New York,NY,40.6943,-73.9249,18908608
Nina,Cutro-Kelly,Judo,2020,Albany,New York,NY,42.6664,-73.7987,590694
Brian,Irr,Karate,2020,Newfane,New York,NY,,,
Brooke,Mooney,Rowing,2020,Keene Valley,New York,NY,,,
Charlotte,Buck,Rowing,2020,Nyack,New York,NY,41.0919,-73.9143,7057
Kristine,O'Brien,Rowing,2020,Massapequa Park,New York,NY,40.6817,-73.4496,17045
Meghan,Musnicki,Rowing,2020,Naples,New York,NY,,,
Olivia,Coffey,Rowing,2020,Watkins Glen,New York,NY,42.3801,-76.8673,1777
Crystal,Dunn,Soccer,2020,Rockville Centre,New York,NY,,,
Ashley,Twichell,Swimming,2020,Fayetteville,New York,NY,43.0308,-75.9984,4248
Katie,Douglass,Swimming,2020,Pelham,New York,NY,,,
Juan,Liu,Table Tennis,2020,College Point,New York,NY,,,
Jessica,Pegula,Tennis,2020,Buffalo,New York,NY,42.9018,-78.8487,944589
Dalilah,Muhammad,Track and Field,2020,Jamaica,New York,NY,,,
Rai,Benjamin,Track and Field,2020,Mount Vernon,New York,NY,40.9136,-73.8291,72817
Rudy,Winkler,Track and Field,2020,Sand Lake,New York,NY,,,
Matthew,Anderson,Volleyball,2020,West Seneca,New York,NY,,,
Kyle,Dake,Wrestling,2020,Lansing,New York,NY,,,
Ryder,Ryan,Baseball,2020,Huntersville,North Carolina,NC,35.406,-80.8716,61202
Tim,Federowicz,Baseball,2020,Chapel Hill,North Carolina,NC,35.9271,-79.0391,58919
Naomi,Graham,Boxing,2020,Fayetteville,North Carolina,NC,35.085,-78.9772,328804
Evy,Leibfarth,Canoe/Kayak,2020,Bryson City,North Carolina,NC,35.4262,-83.4475,1638
Michal,Smolen,Canoe/Kayak,2020,Charlotte,North Carolina,NC,35.2083,-80.8303,1427444
Andrew,Capobianco,Diving,2020,Holly Springs,North Carolina,NC,35.6526,-78.8399,42023
Claire,Curzan,Swimming,2020,Cary,North Carolina,NC,35.7819,-78.8195,174880
Tommy,Paul,Tennis,2020,Greenville,North Carolina,NC,35.5943,-77.376,127574
Anna,Cockrell,Track and Field,2020,Charlotte,North Carolina,NC,35.2083,-80.8303,1427444
Gabriele,Cunningham,Track and Field,2020,Charlotte,North Carolina,NC,35.2083,-80.8303,1427444
Kendra,Harrison,Track and Field,2020,Clayton,North Carolina,NC,35.659,-78.4498,26837
Randolph,Ross,Track and Field,2020,Raleigh,North Carolina,NC,35.8324,-78.6429,1163152
Caine,Wilkes,Weightlifting,2020,Indian Trail,North Carolina,NC,35.0699,-80.6452,40325
Jacob,Wukie,Archery,2020,Fremont,Ohio,OH,41.3535,-83.1147,15900
Delante,Johnson,Boxing,2020,Cleveland,Ohio,OH,41.4764,-81.6805,1680247
Duke,Ragan,Boxing,2020,Cincinnati,Ohio,OH,39.1413,-84.506,1692702
Oshae,Jones,Boxing,2020,Toledo,Ohio,OH,41.6638,-83.5827,493302
Nick,Bruce,Cycling,2020,Hubbard,Ohio,OH,41.1595,-80.5672,7618
Carlin,Isles,Rugby,2020,Massillon,Ohio,OH,40.7838,-81.5254,32179
Rose,Lavelle,Soccer,2020,Cincinnati,Ohio,OH,39.1413,-84.506,1692702
Hunter,Armstrong,Swimming,2020,Dover,Ohio,OH,,,
Zachary,Apple,Swimming,2020,Trenton,Ohio,OH,39.4792,-84.462,13133
Adelaide,Aquilla,Track and Field,2020,Westlake,Ohio,OH,41.4524,-81.9294,34027
Clayton,Murphy,Track and Field,2020,New Madison,Ohio,OH,39.9671,-84.7082,958
Katie,Nageotte,Track and Field,2020,Olmsted Falls,Ohio,OH,41.3657,-81.9038,8670
Reggie,Jagers III,Track and Field,2020,Cleveland,Ohio,OH,41.4764,-81.6805,1680247
Maxwell,Holt,Volleyball,2020,Cincinnati,Ohio,OH,39.1413,-84.506,1692702
Patrick,Callan,Swimming,2020,Tulsa,Oklahoma,OK,36.1283,-95.9042,731743
Micha,Hancock,Volleyball,2020,Edmond,Oklahoma,OK,35.6689,-97.416,94503
Jerami,Grant,Basketball,2020,Portland,Oregon,OR,45.5371,-122.65,2095808
Mariel,Zagunis,Fencing,2020,Portland,Oregon,OR,45.5371,-122.65,2095808
Devon,Allen,Track and Field,2020,Eugene,Oregon,OR,44.0564,-123.1174,270990
Galen,Rupp,Track and Field,2020,Portland,Oregon,OR,45.5371,-122.65,2095808
Matthew,Centrowitz,Track and Field,2020,Portland,Oregon,OR,45.5371,-122.65,2095808
Micah,Williams,Track and Field,2020,Portland,Oregon,OR,45.5371,-122.65,2095808
Ryan,Crouser,Track and Field,2020,Boring,Oregon,OR,45.4304,-122.3716,1987
Sally,Kipyego,Track and Field,2020,Eugene,Oregon,OR,44.0564,-123.1174,270990
Kimberly,Hill,Volleyball,2020,Portland,Oregon,OR,45.5371,-122.65,2095808
Casey,Kaufhold,Archery,2020,Lancaster,Pennsylvania,PA,40.042,-76.3012,402476
Scott,McGough,Baseball,2020,Pittsburgh,Pennsylvania,PA,40.4397,-79.9763,1749091
Payton,Ridenour,Cycling,2020,Pottstown,Pennsylvania,PA,40.2508,-75.6445,23356
Boyd,Martin,Equestrian,2020,Cochranville,Pennsylvania,PA,39.8905,-75.9241,488
Phillip,Dutton,Equestrian,2020,West Grove,Pennsylvania,PA,39.8206,-75.8284,2784
Jacob,Hoyle,Fencing,2020,Wallingford,Pennsylvania,PA,,,
Alex,Miklasevich,Rowing,2020,Pittsburgh,Pennsylvania,PA,40.4397,-79.9763,1749091
Julian,Venonsky,Rowing,2020,Philadelphia,Pennsylvania,PA,40.0077,-75.1339,5683533
Justin,Best,Rowing,2020,Kennett Square,Pennsylvania,PA,39.8438,-75.7113,5982
Michael,Grady,Rowing,2020,Pittsburgh,Pennsylvania,PA,40.4397,-79.9763,1749091
Nicholas,Mead,Rowing,2020,Strafford,Pennsylvania,PA,,,
Ariana,Ramsey,Rugby,2020,Philadelphia,Pennsylvania,PA,40.0077,-75.1339,5683533
Kris,Thomas,Rugby,2020,Philadelphia,Pennsylvania,PA,40.0077,-75.1339,5683533
Hali,Flickinger,Swimming,2020,Spring Grove,Pennsylvania,PA,39.8808,-76.8641,2141
Jennifer,Brady,Tennis,2020,Harrisburg,Pennsylvania,PA,40.2752,-76.8843,498329
Ajee,Wilson,Track and Field,2020,Philadelphia,Pennsylvania,PA,40.0077,-75.1339,5683533
Joseph,Kovacs,Track and Field,2020,Nazareth,Pennsylvania,PA,40.74,-75.3131,6015
Michael,Shuey,Track and Field,2020,Johnsonburg,Pennsylvania,PA,41.4913,-78.6791,2293
Mitchell,Stahl,Volleyball,2020,Chambersburg,Pennsylvania,PA,39.9315,-77.6556,21917
David,Taylor,Wrestling,2020,State College,Pennsylvania,PA,40.7909,-77.8567,83170
John,Stefanowicz,Wrestling,2020,New Park,Pennsylvania,PA,,,
Anders,Weiss,Rowing,2020,Barrington,Rhode Island,RI,,,
Stuart,McNay,Sailing,2020,Providence,Rhode Island,RI,41.823,-71.4187,1290271
Emily,Sisson,Track and Field,2020,Providence,Rhode Island,RI,41.823,-71.4187,1290271
Khris,Middleton,Basketball,2020,Charleston,South Carolina,SC,32.8168,-79.9687,706884
A'ja,Wilson,Basketball,2020,Columbia,South Carolina,SC,34.0378,-80.9036,604065
Doug,Payne,Equestrian,2020,Aiken,South Carolina,SC,33.5303,-81.7271,32014
Quanera,Hayes,Track and Field,2020,Dillon,South Carolina,SC,34.4233,-79.3689,6454
Raven,Saunders,Track and Field,2020,Charleston,South Carolina,SC,32.8168,-79.9687,706884
Sandi,Morris,Track and Field,2020,Greenville,South Carolina,SC,34.8354,-82.3646,401443
Wadeline,Jonathas,Track and Field,2020,Columbia,South Carolina,SC,34.0378,-80.9036,604065
Clarence,Cummings,Weightlifting,2020,Beaufort,South Carolina,SC,32.4597,-80.7235,13582
Paige,McPherson,Taekwondo,2020,Sturgis,South Dakota,SD,44.411,-103.4973,7121
Alex,Walsh,Swimming,2020,Nashville,Tennessee,TN,36.1715,-86.7842,1177657
Erika,Brown,Swimming,2020,Knoxville,Tennessee,TN,35.9692,-83.9496,615829
Tennys,Sandgren,Tennis,2020,Gallatin,Tennessee,TN,36.3782,-86.4698,44947
Alex,Young,Track and Field,2020,La Vergne,Tennessee,TN,36.02,-86.5586,38553
Wesley,Kitts,Weightlifting,2020,Knoxville,Tennessee,TN,35.9692,-83.9496,615829
Mackenzie,Brown,Archery,2020,Flint,Texas,TX,,,
Scott,Kazmir,Baseball,2020,Cypress Falls,Texas,TX,,,
Shane,Baz,Baseball,2020,Cypress,Texas,TX,,,
Simeon,Woods Richardson,Baseball,2020,Sugar Land,Texas,TX,29.5935,-95.6358,110077
Ariel,Atkins,Basketball,2020,Dallas,Texas,TX,32.7935,-96.7667,5830932
Brittney,Griner,Basketball,2020,Houston,Texas,TX,29.786,-95.3885,5970127
Virginia,Fuchs,Boxing,2020,Houston,Texas,TX,29.786,-95.3885,5970127
Lawson,Craddock,Cycling,2020,Houston,Texas,TX,29.786,-95.3885,5970127
Alison,Gibson,Diving,2020,Austin,Texas,TX,30.3005,-97.7522,1905945
Hailey,Hernandez,Diving,2020,Southlake,Texas,TX,32.9545,-97.1503,30779
Courtney,Hurley,Fencing,2020,San Antonio,Texas,TX,29.4632,-98.5238,2058444
Kelley,Hurley,Fencing,2020,San Antonio,Texas,TX,29.4632,-98.5238,2058444
Simone,Biles,Gymnastic (Artistic),2020,Spring,Texas,TX,30.0613,-95.383,63930
Thomas,Scott,Karate,2020,Richardson,Texas,TX,32.9716,-96.7093,118063
Kevon,Williams,Rugby,2020,Houston,Texas,TX,29.786,-95.3885,5970127
Austen,Smith,Shooting,2020,Keller,Texas,TX,32.9335,-97.2256,45320
Phillip,Jungman,Shooting,2020,Caldwell,Texas,TX,30.5307,-96.7007,4120
Catherine,Osterman,Softball ,2020,Houston,Texas,TX,29.786,-95.3885,5970127
Simone,Manuel,Swimming,2020,Sugar Land,Texas,TX,29.5935,-95.6358,110077
Huijing,Wang,Table Tennis,2020,Sugar Land,Texas,TX,29.5935,-95.6358,110077
Austin,Krajicek,Tennis,2020,Plano,Texas,TX,33.0502,-96.7486,284948
Ariana,Ince,Track and Field,2020,Gonzales,Texas,TX,29.5126,-97.4472,7190
Bryce,Deadmon,Track and Field,2020,Missouri City,Texas,TX,29.563,-95.5365,74517
Bryce,Hoppel,Track and Field,2020,Midland,Texas,TX,32.0243,-102.1147,140171
Fred,Kerley,Track and Field,2020,San Antonio,Texas,TX,29.4632,-98.5238,2058444
Jasmine,Moore,Track and Field,2020,Grand Prairie,Texas,TX,32.6871,-97.0208,197279
Raevyn,Rogers,Track and Field,2020,Houston,Texas,TX,29.786,-95.3885,5970127
Steffin,McCarter,Track and Field,2020,Copperas Cove,Texas,TX,31.1192,-97.914,36436
Chiaka,Ogbogu,Volleyball,2020,Coppell,Texas,TX,32.9639,-96.9903,42513
Jourdan,Delacruz,Weightlifting,2020,Wylie,Texas,TX,33.0362,-96.5161,57063
Tamyra,Mensah-Stock,Wrestling,2020,Katy,Texas,TX,29.7905,-95.8353,22826
Jordan,Matyas,Rugby,2020,Calgary,Utah,UT,,,
Nathaniel,Coleman,Sport Climbing,2020,Salt Lake City,Utah,UT,40.7776,-111.9311,1173879
Rhyan,White,Swimming,2020,Herriman,Utah,UT,40.4899,-112.017,55301
Jacob,Gibb,Beach Volleyball,2020,Bountiful,Utah,UT,40.8721,-111.8647,45353
Ilona,Maher,Rugby,2020,Burlington,Vermont,VT,44.4876,-73.2316,123307
Elinor,Purrier,Track and Field,2020,Montgomery,Vermont,VT,,,
Keyshawn,Davis,Boxing,2020,Norfolk,Virginia,VA,36.8945,-76.259,236973
Troy,Isley,Boxing,2020,Alexandria,Virginia,VA,38.8185,-77.0861,157594
Justin,Dowell,Cycling,2020,Virginia Beach,Virginia,VA,36.7335,-76.0435,1443020
Claire,Collins,Rowing,2020,Mclean,Virginia,VA,,,
Cheta,Emba,Rugby,2020,Richmond,Virginia,VA,37.5295,-77.4756,1073223
Andrew,Seliskar,Swimming,2020,Mclean,Virginia,VA,,,
Townley,Haas,Swimming,2020,Henrico,Virginia,VA,,,
Torri,Huske,Swimming,2020,Arlington,Virginia,VA,38.8786,-77.1011,235845
Grant,Holloway,Track and Field,2020,Chesapeake,Virginia,VA,36.6778,-76.3023,249377
Michael,Cherry,Track and Field,2020,Chesapeake,Virginia,VA,36.6778,-76.3023,249377
Noah,Lyles,Track and Field,2020,Alexandria,Virginia,VA,38.8185,-77.0861,157594
Trevor,Stewart,Track and Field,2020,Lorton,Virginia,VA,38.6983,-77.2164,22049
Ty,Butts-Townsend,Track and Field,2020,Hampton,Virginia,VA,37.0551,-76.363,137217
Zach,Lavine,Basketball,2020,Renton,Washington,WA,47.4784,-122.1918,105355
Nevin,Harrison,Canoe/Kayak,2020,Seattle,Washington,WA,47.6211,-122.3244,3561397
Adrian,Hegyvary,Cycling,2020,Seattle,Washington,WA,47.6211,-122.3244,3561397
Katrina,Young,Diving,2020,Seattle,Washington,WA,47.6211,-122.3244,3561397
Jordan,Chiles,Gymnastic (Artistic),2020,Vancouver,Washington,WA,45.6366,-122.5967,190700
Jacob,Riley,Track and Field,2020,Bellingham,Washington,WA,48.7548,-122.469,129880
Kara,Winger,Track and Field,2020,Vancouver,Washington,WA,45.6366,-122.5967,190700
Harrison,Maurus,Weightlifting,2020,Auburn,Washington,WA,47.3039,-122.2108,85623
Alison,Rusher,Rowing,2020,West Bend,Wisconsin,WI,43.4173,-88.1818,31682
Madeleine,Wanamaker,Rowing,2020,Neenah,Wisconsin,WI,44.1669,-88.4767,27309
Megan,Kalmoe,Rowing,2020,Saint Croix Falls,Wisconsin,WI,,,
Stephanie,Roble,Sailing,2020,East Troy,Wisconsin,WI,42.7846,-88.3973,4669
Madelynn,Bernau,Shooting,2020,Waterford,Wisconsin,WI,42.7645,-88.216,5587
Alicia,Monson,Track and Field,2020,Amery,Wisconsin,WI,45.3045,-92.3635,2959
Kenneth,Bednarek,Track and Field,2020,Rice Lake,Wisconsin,WI,45.4864,-91.7447,8990
